"","departement","commune","unit.type","location","latitude","longitude","start.date","sheep.measuring.units","sheep.susceptible","sheep.cases","sheep.deaths","sheep.destroyed","sheep.slaughtered","cattle.measuring.units","cattle.susceptible","cattle.cases","cattle.deaths","cattle.destroyed","cattle.slaughtered","goat.measuring.units","goat.susceptible","goat.cases","goat.deaths","goat.destroyed","goat.slaughtered","remark"
"1","AUBE","Salon","Farm","Salon",48.633333,4,"20/01/2012","Animals",NA,NA,NA,NA,NA,NA,NA,NA,NA,NA,NA,NA,NA,NA,NA,NA,NA,"Affected Population"
"2","VIENNE","LATHUS-SAINT-REMY","Farm","LATHUS-SAINT-REMY",46.383333,0.883333,"20/01/2012","Animals",NA,NA,NA,NA,NA,NA,NA,NA,NA,NA,NA,NA,NA,NA,NA,NA,NA,"Affected Population"
"3","HAUTE-MARNE","Prangey","Farm","Prangey",47.733333,5.266667,"20/01/2012","Animals",NA,NA,NA,NA,NA,NA,NA,NA,NA,NA,NA,NA,NA,NA,NA,NA,NA,"Affected Population"
"4","CHARENTE","Nieuil","Farm","Nieuil",45.883333,0.5,"20/01/2012","Animals",NA,NA,NA,NA,NA,NA,NA,NA,NA,NA,NA,NA,NA,NA,NA,NA,NA,"Affected Population"
"5","EURE","Beuzeville","Farm","Beuzeville",49.333333,0.35,"20/01/2012",NA,NA,NA,NA,NA,NA,"Animals",NA,NA,NA,NA,NA,NA,NA,NA,NA,NA,NA,"Affected Population"
"6","CHARENTE","Oradour-Fanais","Farm","Oradour-Fanais",46.116667,0.783333,"20/01/2012","Animals",NA,NA,NA,NA,NA,NA,NA,NA,NA,NA,NA,NA,NA,NA,NA,NA,NA,"Affected Population"
"7","SOMME","Nibas","Farm","Nibas",50.1,1.583333,"20/01/2012","Animals",NA,NA,NA,NA,NA,NA,NA,NA,NA,NA,NA,NA,NA,NA,NA,NA,NA,"Affected Population"
"8","INDRE-ET-LOIRE","Nouans-les-Fontaines","Farm","Nouans-les-Fontaines",47.133333,1.3,"20/01/2012","Animals",NA,NA,NA,NA,NA,NA,NA,NA,NA,NA,NA,NA,NA,NA,NA,NA,NA,"Affected Population"
"9","MARNE","MERLAUT","Farm","MERLAUT",48.766667,4.666667,"20/01/2012",NA,NA,NA,NA,NA,NA,"Animals",NA,NA,NA,NA,NA,NA,NA,NA,NA,NA,NA,"Affected Population"
"10","MEURTHE-ET-MOSELLE","Sexey-aux-Forges","Farm","Sexey-aux-Forges",48.616667,6.05,"20/01/2012","Animals",250,2,2,0,0,NA,NA,NA,NA,NA,NA,NA,NA,NA,NA,NA,NA,"Affected Population newborn lambs"
"11","HAUTE-VIENNE","Tersannes","Farm","Tersannes",46.3,1.116667,"20/01/2012","Animals",NA,NA,NA,NA,NA,NA,NA,NA,NA,NA,NA,NA,NA,NA,NA,NA,NA,"Affected Population"
"12","HAUTE-VIENNE","Veyrac","Farm","Veyrac",45.9,1.116667,"20/01/2012",NA,NA,NA,NA,NA,NA,"Animals",NA,NA,NA,NA,NA,NA,NA,NA,NA,NA,NA,"Affected Population"
"13","CHARENTE","ANSAC-SUR-VIENNE","Farm","ANSAC-SUR-VIENNE",46,0.65,"20/01/2012","Animals",NA,NA,NA,NA,NA,NA,NA,NA,NA,NA,NA,NA,NA,NA,NA,NA,NA,"Affected Population"
"14","VIENNE","MOULISMES","Farm","MOULISMES",46.333333,0.816667,"21/01/2012","Animals",NA,NA,NA,NA,NA,NA,NA,NA,NA,NA,NA,NA,NA,NA,NA,NA,NA,"Affected Population"
"15","SOMME","Brutelles","Farm","Brutelles",50.133333,1.516667,"21/01/2012","Animals",5,1,1,0,0,NA,NA,NA,NA,NA,NA,NA,NA,NA,NA,NA,NA,"Affected Population newborn lambs"
"16","HAUTE-MARNE","RENNEPONT","Farm","RENNEPONT",48.15,4.85,"21/01/2012","Animals",NA,NA,NA,NA,NA,NA,NA,NA,NA,NA,NA,NA,NA,NA,NA,NA,NA,"Affected Population"
"17","INDRE","LUANT","Farm","LUANT",46.733333,1.55,"21/01/2012","Animals",NA,NA,NA,NA,NA,NA,NA,NA,NA,NA,NA,NA,NA,NA,NA,NA,NA,"Affected Population"
"18","SOMME","Woincourt","Farm","Woincourt",50.066667,1.533333,"21/01/2012","Animals",70,1,1,0,0,NA,NA,NA,NA,NA,NA,NA,NA,NA,NA,NA,NA,"Affected Population newborn lambs"
"19","MOSELLE","Puttelange-lès-Thionville","Farm","Puttelange-lès-Thionville",49.483333,6.266667,"21/01/2012","Animals",45,2,2,0,0,NA,NA,NA,NA,NA,NA,NA,NA,NA,NA,NA,NA,"Affected Population newborn lambs"
"20","SEINE-MARITIME","Touffreville-sur-Eu","Farm","Touffreville-sur-Eu",50,1.316667,"21/01/2012","Animals",70,6,6,0,0,NA,NA,NA,NA,NA,NA,NA,NA,NA,NA,NA,NA,"Affected Population newborn lambs"
"21","MEURTHE-ET-MOSELLE","MARAINVILLER","Farm","MARAINVILLER",48.583333,6.6,"21/01/2012","Animals",NA,NA,NA,NA,NA,NA,NA,NA,NA,NA,NA,NA,NA,NA,NA,NA,NA,"Affected Population"
"22","VIENNE","COULONGES","Farm","COULONGES",46.42108,1.12298,"21/01/2012","Animals",NA,NA,NA,NA,NA,NA,NA,NA,NA,NA,NA,NA,NA,NA,NA,NA,NA,"Affected Population"
"23","SOMME","Mons-Boubert","Farm","Mons-Boubert",50.133333,1.666667,"21/01/2012","Animals",400,3,3,0,0,NA,NA,NA,NA,NA,NA,NA,NA,NA,NA,NA,NA,"Affected Population newborn lambs"
"24","HAUTE-MARNE","Rennepont","Farm","Rennepont",48.15,4.85,"23/01/2012","Animals",500,15,15,0,0,NA,NA,NA,NA,NA,NA,NA,NA,NA,NA,NA,NA,"Affected Population newborn lambs"
"25","SOMME","Dompierre-sur-Authie","Farm","Dompierre-sur-Authie",50.3,1.916667,"23/01/2012","Animals",84,12,12,0,0,NA,NA,NA,NA,NA,NA,NA,NA,NA,NA,NA,NA,"Affected Population newborn lambs"
"26","SEINE-MARITIME","Martigny","Farm","Martigny",49.866667,1.15,"23/01/2012","Animals",1300,7,7,0,0,NA,NA,NA,NA,NA,NA,NA,NA,NA,NA,NA,NA,"Affected Population newborn lambs"
"27","SOMME","Long","Farm","Long",50.033333,1.983333,"23/01/2012","Animals",700,25,25,0,0,NA,NA,NA,NA,NA,NA,NA,NA,NA,NA,NA,NA,"Affected Population newborn lambs"
"28","MOSELLE","REMILLY","Farm","REMILLY",49.016667,6.4,"23/01/2012","Animals",NA,NA,NA,NA,NA,NA,NA,NA,NA,NA,NA,NA,NA,NA,NA,NA,NA,"Affected Population"
"29","OISE","Cannectancourt","Farm","Cannectancourt",49.55,2.9,"23/01/2012","Animals",5,1,1,0,0,NA,NA,NA,NA,NA,NA,NA,NA,NA,NA,NA,NA,"Affected Population newborn lambs"
"30","SOMME","Longpré-les-Corps-Saints","Farm","Longpré-les-Corps-Saints",50.016667,1.983333,"23/01/2012","Animals",800,2,2,0,0,NA,NA,NA,NA,NA,NA,NA,NA,NA,NA,NA,NA,"Affected Population newborn lambs"
"31","HAUTE-MARNE","Nully","Farm","Nully",48.383333,4.916667,"23/01/2012","Animals",1020,6,6,0,0,NA,NA,NA,NA,NA,NA,NA,NA,NA,NA,NA,NA,"Affected Population newborn lambs"
"32","CALVADOS","Moulines","Farm","Moulines",49.016667,-0.35,"23/01/2012","Animals",52,20,20,0,0,NA,NA,NA,NA,NA,NA,NA,NA,NA,NA,NA,NA,"Affected Population newborn lambs"
"33","HAUTE-MARNE","Coiffy-le-Haut","Farm","Coiffy-le-Haut",47.9,5.7,"24/01/2012","Animals",1360,6,6,0,0,NA,NA,NA,NA,NA,NA,NA,NA,NA,NA,NA,NA,"Affected Population newborn lambs"
"34","MOSELLE","Dédeling","Farm","Dédeling",48.85,6.616667,"24/01/2012","Animals",250,1,1,0,0,NA,NA,NA,NA,NA,NA,NA,NA,NA,NA,NA,NA,"Affected Population newborn lamb"
"35","MEUSE","Lavallée","Farm","Lavallée",48.816667,5.333333,"24/01/2012","Animals",850,6,6,0,0,NA,NA,NA,NA,NA,NA,NA,NA,NA,NA,NA,NA,"Affected Population newborn lambs"
"36","PAS-DE-CALAIS","Villers-Brûlin","Farm","Villers-Brûlin",50.366667,2.533333,"24/01/2012","Animals",300,6,6,0,0,NA,NA,NA,NA,NA,NA,NA,NA,NA,NA,NA,NA,"Affected Population newborn lambs"
"37","HAUTE-MARNE","Montheries","Farm","Montheries",48.166667,4.916667,"24/01/2012","Animals",280,5,5,0,0,NA,NA,NA,NA,NA,NA,NA,NA,NA,NA,NA,NA,"Affected Population newborn lambs"
"38","MEURTHE-ET-MOSELLE","Thorey-Lyautey","Farm","Thorey-Lyautey",48.45,6.033333,"24/01/2012","Animals",70,4,4,0,0,NA,NA,NA,NA,NA,NA,NA,NA,NA,NA,NA,NA,"Affected Population newborn lambs"
"39","SOMME","Ailly-le-Haut-Clocher","Farm","Ailly-le-Haut-Clocher",50.083333,2,"24/01/2012","Animals",300,2,2,0,0,NA,NA,NA,NA,NA,NA,NA,NA,NA,NA,NA,NA,"Affected Population newborn lambs"
"40","MEURTHE-ET-MOSELLE","Réchicourt-la-Petite","Farm","Réchicourt-la-Petite",48.716667,6.566667,"25/01/2012","Animals",450,1,1,0,0,NA,NA,NA,NA,NA,NA,NA,NA,NA,NA,NA,NA,"Affected Population newborn lamb"
"41","MOSELLE","Landange","Farm","Landange",48.666667,6.966667,"25/01/2012","Animals",1100,1,1,0,0,NA,NA,NA,NA,NA,NA,NA,NA,NA,NA,NA,NA,"Affected Population newborn lamb"
"42","HAUTE-MARNE","Coiffy-le-Haut","Farm","Coiffy-le-Haut",47.9,5.7,"25/01/2012","Animals",NA,NA,NA,NA,NA,NA,NA,NA,NA,NA,NA,NA,NA,NA,NA,NA,NA,"Affected Population"
"43","MEURTHE-ET-MOSELLE","Maizières","Farm","Maizières",48.583333,6.066667,"25/01/2012","Animals",250,2,2,0,0,NA,NA,NA,NA,NA,NA,NA,NA,NA,NA,NA,NA,"Affected Population newborn lambs"
"44","AISNE","Montloué","Farm","Montloué",49.666667,4.066667,"25/01/2012","Animals",600,20,20,0,0,NA,NA,NA,NA,NA,NA,NA,NA,NA,NA,NA,NA,"Affected Population newborn lambs"
"45","CALVADOS","Vieux","Farm","Vieux",49.1,-0.433333,"25/01/2012","Animals",20,3,3,0,0,NA,NA,NA,NA,NA,NA,NA,NA,NA,NA,NA,NA,"Affected Population newborn lambs"
"46","OISE","Méry-la-Bataille","Farm","Méry-la-Bataille",49.55,2.633333,"26/01/2012","Animals",145,1,1,0,0,NA,NA,NA,NA,NA,NA,NA,NA,NA,NA,NA,NA,"Affected Population newborn lambs"
"47","PAS-DE-CALAIS","Incourt","Farm","Incourt",50.383333,2.15,"26/01/2012","Animals",6,2,2,0,0,NA,NA,NA,NA,NA,NA,NA,NA,NA,NA,NA,NA,"Affected Population newborn lambs"
"48","VOSGES","Ménil-en-Xaintois","Farm","Ménil-en-Xaintois",48.316667,5.966667,"26/01/2012","Animals",NA,NA,NA,NA,NA,NA,NA,NA,NA,NA,NA,NA,NA,NA,NA,NA,NA,"Affected Population"
"49","AISNE","Aizy Jouy","Farm","Aizy Jouy",49.416667,3.516667,"26/01/2012","Animals",145,1,1,0,0,NA,NA,NA,NA,NA,NA,NA,NA,NA,NA,NA,NA,"Affected Population newborn lamb"
"50","PAS-DE-CALAIS","INCOURT","Farm","INCOURT",50.383333,2.15,"26/01/2012","Animals",NA,NA,NA,NA,NA,NA,NA,NA,NA,NA,NA,NA,NA,NA,NA,NA,NA,"Affected Population"
"51","VOSGES","Sandaucourt","Farm","Sandaucourt",48.266667,5.85,"26/01/2012","Animals",NA,NA,NA,NA,NA,NA,NA,NA,NA,NA,NA,NA,NA,NA,NA,NA,NA,"Affected Population"
"52","VIENNE","COULONGES","Farm","COULONGES",46.42108,1.12298,"30/01/2012","Animals",NA,NA,NA,NA,NA,NA,NA,NA,NA,NA,NA,NA,NA,NA,NA,NA,NA,"Affected Population"
"53","HAUTE-VIENNE","Oradour-Saint-Genest","Farm","Oradour-Saint-Genest",46.233333,1.033333,"30/01/2012","Animals",NA,NA,NA,NA,NA,NA,NA,NA,NA,NA,NA,NA,NA,NA,NA,NA,NA,"Affected Population"
"54","SEINE-MARITIME","Hermanville","Farm","Hermanville",49.816667,0.983333,"30/01/2012","Animals",NA,NA,NA,NA,NA,NA,NA,NA,NA,NA,NA,NA,NA,NA,NA,NA,NA,"Affected Population"
"55","SOMME","Vironchaux","Farm","Vironchaux",50.283333,1.816667,"30/01/2012","Animals",NA,NA,NA,NA,NA,NA,NA,NA,NA,NA,NA,NA,NA,NA,NA,NA,NA,"Affected Population"
"56","MOSELLE","Beux","Farm","Beux",49,6.316667,"30/01/2012",NA,NA,NA,NA,NA,NA,NA,NA,NA,NA,NA,NA,"Animals",NA,NA,NA,NA,NA,"Affected Population"
"57","AUBE","Pel-et-Der","Farm","Pel-et-Der",48.4,4.416667,"30/01/2012","Animals",NA,NA,NA,NA,NA,NA,NA,NA,NA,NA,NA,NA,NA,NA,NA,NA,NA,"Affected Population"
"58","VOSGES","Grand","Farm","Grand",48.383333,5.483333,"30/01/2012","Animals",NA,NA,NA,NA,NA,NA,NA,NA,NA,NA,NA,NA,NA,NA,NA,NA,NA,"Affected Population"
"59","SEINE-MARITIME","Envronville","Farm","Envronville",49.666667,0.666667,"30/01/2012","Animals",NA,NA,NA,NA,NA,NA,NA,NA,NA,NA,NA,NA,NA,NA,NA,NA,NA,"Affected Population"
"60","AISNE","Fontaine-lès-Vervins","Farm","Fontaine-lès-Vervins",49.85,3.9,"30/01/2012","Animals",NA,NA,NA,NA,NA,NA,NA,NA,NA,NA,NA,NA,NA,NA,NA,NA,NA,"Affected Population"
"61","PAS-DE-CALAIS","Villers-Brûlin","Farm","Villers-Brûlin",50.366667,2.533333,"30/01/2012","Animals",NA,NA,NA,NA,NA,NA,NA,NA,NA,NA,NA,NA,NA,NA,NA,NA,NA,"Affected Population"
"62","VIENNE","Persac","Farm","Persac",46.35,0.7,"30/01/2012","Animals",NA,NA,NA,NA,NA,NA,NA,NA,NA,NA,NA,NA,NA,NA,NA,NA,NA,"Affected Population"
"63","AISNE","Origny-en-Thiérache","Farm","Origny-en-Thiérache",49.9,4.016667,"30/01/2012","Animals",NA,NA,NA,NA,NA,NA,NA,NA,NA,NA,NA,NA,NA,NA,NA,NA,NA,"Affected Population"
"64","MOSELLE","Saint-Georges","Farm","Saint-Georges",48.666667,6.933333,"30/01/2012","Animals",NA,NA,NA,NA,NA,NA,NA,NA,NA,NA,NA,NA,NA,NA,NA,NA,NA,"Affected Population"
"65","AISNE","Étréaupont","Farm","Étréaupont",49.9,3.916667,"30/01/2012","Animals",NA,NA,NA,NA,NA,NA,NA,NA,NA,NA,NA,NA,NA,NA,NA,NA,NA,"Affected Population"
"66","AISNE","Wimy","Farm","Wimy",49.933333,4,"30/01/2012","Animals",NA,NA,NA,NA,NA,NA,NA,NA,NA,NA,NA,NA,NA,NA,NA,NA,NA,"Affected Population"
"67","SEINE-MARITIME","Saint-Pierre-le-Vieux","Farm","Saint-Pierre-le-Vieux",49.85,0.866667,"30/01/2012","Animals",NA,NA,NA,NA,NA,NA,NA,NA,NA,NA,NA,NA,NA,NA,NA,NA,NA,"Affected Population"
"68","AUBE","Radonvilliers","Farm","Radonvilliers",48.366667,4.516667,"30/01/2012","Animals",NA,NA,NA,NA,NA,NA,NA,NA,NA,NA,NA,NA,NA,NA,NA,NA,NA,"Affected Population"
"69","SEINE-MARITIME","Bacqueville-en-Caux","Farm","Bacqueville-en-Caux",49.783333,1,"30/01/2012","Animals",NA,NA,NA,NA,NA,NA,NA,NA,NA,NA,NA,NA,NA,NA,NA,NA,NA,"Affected Population"
"70","VOSGES","Lamarche","Farm","Lamarche",48.066667,5.783333,"30/01/2012","Animals",NA,NA,NA,NA,NA,NA,NA,NA,NA,NA,NA,NA,NA,NA,NA,NA,NA,"Affected Population"
"71","SEINE-MARITIME","Douvrend","Farm","Douvrend",49.866667,1.316667,"31/01/2012","Animals",NA,NA,NA,NA,NA,NA,NA,NA,NA,NA,NA,NA,NA,NA,NA,NA,NA,"Affected Population"
"72","SEINE-MARITIME","Sainte-Hélène-Bondeville","Farm","Sainte-Hélène-Bondeville",49.766667,0.466667,"31/01/2012","Animals",NA,NA,NA,NA,NA,NA,NA,NA,NA,NA,NA,NA,NA,NA,NA,NA,NA,"Affected Population"
"73","MEUSE","Sorcy-Saint-Martin","Farm","Sorcy-Saint-Martin",48.716667,5.633333,"31/01/2012","Animals",NA,NA,NA,NA,NA,NA,NA,NA,NA,NA,NA,NA,NA,NA,NA,NA,NA,"Affected Population"
"74","MEURTHE-ET-MOSELLE","Hénaménil","Farm","Hénaménil",48.666667,6.566667,"31/01/2012","Animals",NA,NA,NA,NA,NA,NA,NA,NA,NA,NA,NA,NA,NA,NA,NA,NA,NA,"Affected Population"
"75","SOMME","Framicourt","Farm","Framicourt",49.95,1.683333,"31/01/2012","Animals",NA,NA,NA,NA,NA,NA,NA,NA,NA,NA,NA,NA,NA,NA,NA,NA,NA,"Affected Population"
"76","PAS-DE-CALAIS","Incourt","Farm","Incourt",50.383333,2.15,"31/01/2012","Animals",NA,NA,NA,NA,NA,NA,NA,NA,NA,NA,NA,NA,NA,NA,NA,NA,NA,"Affected Population"
"77","AISNE","Wiège-Faty","Farm","Wiège-Faty",49.883333,3.733333,"31/01/2012","Animals",NA,NA,NA,NA,NA,NA,NA,NA,NA,NA,NA,NA,NA,NA,NA,NA,NA,"Affected Population"
"78","MEURTHE-ET-MOSELLE","Faulx","Farm","Faulx",48.8,6.2,"31/01/2012","Animals",NA,NA,NA,NA,NA,NA,NA,NA,NA,NA,NA,NA,NA,NA,NA,NA,NA,"Affected Population"
"79","HAUTE-MARNE","Vaux-sur-Blaise","Farm","Vaux-sur-Blaise",48.466667,4.966667,"31/01/2012","Animals",NA,NA,NA,NA,NA,NA,NA,NA,NA,NA,NA,NA,NA,NA,NA,NA,NA,"Affected Population"
"80","SEINE-MARITIME","Saint-Eustache-la-Forêt","Farm","Saint-Eustache-la-Forêt",49.55,0.466667,"31/01/2012","Animals",NA,NA,NA,NA,NA,NA,NA,NA,NA,NA,NA,NA,NA,NA,NA,NA,NA,"Affected Population"
"81","VOSGES","Florémont","Farm","Florémont",48.366667,6.25,"31/01/2012","Animals",NA,NA,NA,NA,NA,NA,NA,NA,NA,NA,NA,NA,NA,NA,NA,NA,NA,"Affected Population"
"82","VOSGES","Repel","Farm","Repel",48.35,5.975,"31/01/2012","Animals",NA,NA,NA,NA,NA,NA,NA,NA,NA,NA,NA,NA,NA,NA,NA,NA,NA,"Affected Population"
"83","MOSELLE","Conthil","Farm","Conthil",48.9,6.65,"31/01/2012","Animals",NA,NA,NA,NA,NA,NA,NA,NA,NA,NA,NA,NA,NA,NA,NA,NA,NA,"Affected Population"
"84","MEURTHE-ET-MOSELLE","Agincourt","Farm","Agincourt",48.733333,6.233333,"31/01/2012","Animals",NA,NA,NA,NA,NA,NA,NA,NA,NA,NA,NA,NA,NA,NA,NA,NA,NA,"Affected Population"
"85","VIENNE","LATHUS-SAINT-REMY","Farm","LATHUS-SAINT-REMY",46.383333,0.883333,"31/01/2012","Animals",NA,NA,NA,NA,NA,NA,NA,NA,NA,NA,NA,NA,NA,NA,NA,NA,NA,"Affected Population"
"86","SOMME","Beauquesne","Farm","Beauquesne",50.083333,2.4,"31/01/2012","Animals",NA,NA,NA,NA,NA,NA,NA,NA,NA,NA,NA,NA,NA,NA,NA,NA,NA,"Affected Population"
"87","VOSGES","Frenelle-la-Grande","Farm","Frenelle-la-Grande",48.35,6.083333,"31/01/2012","Animals",NA,NA,NA,NA,NA,NA,NA,NA,NA,NA,NA,NA,NA,NA,NA,NA,NA,"Affected Population"
"88","VOSGES","Ménil-sur-Belvitte","Farm","Ménil-sur-Belvitte",48.383333,6.7,"31/01/2012","Animals",NA,NA,NA,NA,NA,NA,NA,NA,NA,NA,NA,NA,NA,NA,NA,NA,NA,"Affected Population"
"89","SEINE-MARITIME","Saint-Pierre-le-Viger","Farm","Saint-Pierre-le-Viger",49.816667,0.85,"31/01/2012","Animals",NA,NA,NA,NA,NA,NA,NA,NA,NA,NA,NA,NA,NA,NA,NA,NA,NA,"Affected Population"
"90","VOSGES","Ollainville","Farm","Ollainville",48.266667,5.8,"31/01/2012","Animals",NA,NA,NA,NA,NA,NA,NA,NA,NA,NA,NA,NA,NA,NA,NA,NA,NA,"Affected Population"
"91","INDRE","SAINT-CHRISTOPHE-EN-BAZELLE","Farm","SAINT-CHRISTOPHE-EN-BAZELLE",47.183333,1.716667,"31/01/2012",NA,NA,NA,NA,NA,NA,NA,NA,NA,NA,NA,NA,"Animals",NA,NA,NA,NA,NA,"Affected Population"
"92","VOSGES","Esley","Farm","Esley",48.166667,6.066667,"31/01/2012","Animals",NA,NA,NA,NA,NA,NA,NA,NA,NA,NA,NA,NA,NA,NA,NA,NA,NA,"Affected Population"
"93","SEINE-MARITIME","Saint-Jean-de-la-Neuville","Farm","Saint-Jean-de-la-Neuville",49.583333,0.416667,"31/01/2012","Animals",NA,NA,NA,NA,NA,NA,NA,NA,NA,NA,NA,NA,NA,NA,NA,NA,NA,"Affected Population"
"94","SOMME","Saint-Valéry-sur-Somme","Farm","Saint-Valéry-sur-Somme",50.183333,1.633333,"31/01/2012","Animals",NA,NA,NA,NA,NA,NA,NA,NA,NA,NA,NA,NA,NA,NA,NA,NA,NA,"Affected Population"
"95","MEURTHE-ET-MOSELLE","Frémonville","Farm","Frémonville",48.6,6.883333,"31/01/2012","Animals",NA,NA,NA,NA,NA,NA,NA,NA,NA,NA,NA,NA,NA,NA,NA,NA,NA,"Affected Population"
"96","CREUSE","Saint-Maurice-la-Souterraine","Farm","Saint-Maurice-la-Souterraine",46.216667,1.433333,"31/01/2012","Animals",NA,NA,NA,NA,NA,NA,NA,NA,NA,NA,NA,NA,NA,NA,NA,NA,NA,"Affected Population"
"97","HAUTE-VIENNE","DARNAC","Farm","DARNAC",46.216667,0.966667,"01/02/2012","Animals",NA,NA,NA,NA,NA,NA,NA,NA,NA,NA,NA,NA,NA,NA,NA,NA,NA,"Affected Population"
"98","CALVADOS","MANNEVILLE-LA-PIPARD","Farm","MANNEVILLE-LA-PIPARD",49.266667,0.216667,"01/02/2012",NA,NA,NA,NA,NA,NA,"Animals",NA,NA,NA,NA,NA,NA,NA,NA,NA,NA,NA,"Affected Population"
"99","NORD","Ghyvelde","Farm","Ghyvelde",51.05,2.533333,"01/02/2012","Animals",NA,NA,NA,NA,NA,NA,NA,NA,NA,NA,NA,NA,NA,NA,NA,NA,NA,"Affected Population"
"100","HAUTE-MARNE","Cuves","Farm","Cuves",48.1,5.433333,"01/02/2012","Animals",NA,NA,NA,NA,NA,NA,NA,NA,NA,NA,NA,NA,NA,NA,NA,NA,NA,"Affected Population"
"101","HAUTE-MARNE","FAYL-BILLOT","Farm","FAYL-BILLOT",47.75,5.666667,"01/02/2012","Animals",NA,NA,NA,NA,NA,NA,NA,NA,NA,NA,NA,NA,NA,NA,NA,NA,NA,"Affected Population"
"102","HAUTE-MARNE","Blessonville","Farm","Blessonville",48.066667,5,"01/02/2012","Animals",NA,NA,NA,NA,NA,NA,NA,NA,NA,NA,NA,NA,NA,NA,NA,NA,NA,"Affected Population"
"103","VIENNE","MOULISMES","Farm","MOULISMES",46.333333,0.816667,"01/02/2012","Animals",NA,NA,NA,NA,NA,NA,NA,NA,NA,NA,NA,NA,NA,NA,NA,NA,NA,"Affected Population"
"104","AISNE","Origny-en-Thiérache","Farm","Origny-en-Thiérache",49.9,4.016667,"01/02/2012","Animals",NA,NA,NA,NA,NA,NA,NA,NA,NA,NA,NA,NA,NA,NA,NA,NA,NA,"Affected Population"
"105","SEINE-MARITIME","Imbleville","Farm","Imbleville",49.716667,0.95,"01/02/2012","Animals",NA,NA,NA,NA,NA,NA,NA,NA,NA,NA,NA,NA,NA,NA,NA,NA,NA,"Affected Population"
"106","HAUTE-MARNE","Outremécourt","Farm","Outremécourt",48.216667,5.683333,"01/02/2012","Animals",NA,NA,NA,NA,NA,NA,NA,NA,NA,NA,NA,NA,NA,NA,NA,NA,NA,"Affected Population"
"107","VIENNE","LA TRIMOUILLE","Farm","La Trimouille",46.466667,1.05,"01/02/2012","Animals",NA,NA,NA,NA,NA,NA,NA,NA,NA,NA,NA,NA,NA,NA,NA,NA,NA,"Affected Population"
"108","NORD","Sémeries","Farm","Sémeries",50.116667,4,"01/02/2012","Animals",NA,NA,NA,NA,NA,NA,NA,NA,NA,NA,NA,NA,NA,NA,NA,NA,NA,"Affected Population"
"109","VIENNE","LATHUS-SAINT-REMY","Farm","LATHUS-SAINT-REMY",46.383333,0.883333,"01/02/2012","Animals",NA,NA,NA,NA,NA,NA,NA,NA,NA,NA,NA,NA,NA,NA,NA,NA,NA,"Affected Population"
"110","HAUTE-SAÔNE","Hurecourt","Farm","Hurecourt",47.9,6.066667,"01/02/2012","Animals",NA,NA,NA,NA,NA,NA,NA,NA,NA,NA,NA,NA,NA,NA,NA,NA,NA,"Affected Population"
"111","DEUX-SÈVRES","La Chapelle-Bertrand","Farm","La Chapelle-Bertrand",46.616667,-0.183333,"01/02/2012","Animals",NA,NA,NA,NA,NA,NA,NA,NA,NA,NA,NA,NA,NA,NA,NA,NA,NA,"Affected Population"
"112","VOSGES","Clézentaine","Farm","Clézentaine",48.416667,6.533333,"02/02/2012","Animals",NA,NA,NA,NA,NA,NA,NA,NA,NA,NA,NA,NA,NA,NA,NA,NA,NA,"Affected Population"
"113","MEURTHE-ET-MOSELLE","Colombey-les-Belles","Farm","Colombey-les-Belles",48.533333,5.9,"02/02/2012","Animals",NA,NA,NA,NA,NA,NA,NA,NA,NA,NA,NA,NA,NA,NA,NA,NA,NA,"Affected Population"
"114","HAUTE-MARNE","Champigny-sous-Varennes","Farm","Champigny-sous-Varennes",47.866667,5.65,"02/02/2012","Animals",NA,NA,NA,NA,NA,NA,NA,NA,NA,NA,NA,NA,NA,NA,NA,NA,NA,"Affected Population"
"115","NORD","Linselles","Farm","Linselles",50.733333,3.083333,"02/02/2012","Animals",NA,NA,NA,NA,NA,NA,NA,NA,NA,NA,NA,NA,NA,NA,NA,NA,NA,"Affected Population"
"116","SEINE-MARITIME","Saint-Vaast-d'Équiqueville","Farm","Saint-Vaast-d'Équiqueville",49.816667,1.266667,"02/02/2012","Animals",NA,NA,NA,NA,NA,NA,NA,NA,NA,NA,NA,NA,NA,NA,NA,NA,NA,"Affected Population"
"117","NORD","Tourmignies","Farm","Tourmignies",50.5,3.083333,"02/02/2012","Animals",NA,NA,NA,NA,NA,NA,NA,NA,NA,NA,NA,NA,NA,NA,NA,NA,NA,"Affected Population"
"118","MOSELLE","Saint-Georges","Farm","Saint-Georges",48.666667,6.933333,"02/02/2012","Animals",NA,NA,NA,NA,NA,NA,NA,NA,NA,NA,NA,NA,NA,NA,NA,NA,NA,"Affected Population"
"119","NORD","Nomain","Farm","Nomain",50.5,3.25,"02/02/2012","Animals",NA,NA,NA,NA,NA,NA,NA,NA,NA,NA,NA,NA,NA,NA,NA,NA,NA,"Affected Population"
"120","NORD","Honnechy","Farm","Honnechy",50.066667,3.45,"02/02/2012","Animals",NA,NA,NA,NA,NA,NA,NA,NA,NA,NA,NA,NA,NA,NA,NA,NA,NA,"Affected Population"
"121","HAUTE-MARNE","Is-en-Bassigny","Farm","Is-en-Bassigny",48.033333,5.45,"02/02/2012","Animals",NA,NA,NA,NA,NA,NA,NA,NA,NA,NA,NA,NA,NA,NA,NA,NA,NA,"Affected Population"
"122","VIENNE","La Trimouille","Farm","La Trimouille",46.466667,1.05,"02/02/2012","Animals",NA,NA,NA,NA,NA,NA,NA,NA,NA,NA,NA,NA,NA,NA,NA,NA,NA,"Affected Population"
"123","MOSELLE","Guébling","Farm","Guébling",48.866667,6.733333,"02/02/2012","Animals",NA,NA,NA,NA,NA,NA,NA,NA,NA,NA,NA,NA,NA,NA,NA,NA,NA,"Affected Population"
"124","AISNE","Saint-Pierremont","Farm","Saint-Pierremont",49.716667,3.883333,"02/02/2012","Animals",NA,NA,NA,NA,NA,NA,NA,NA,NA,NA,NA,NA,NA,NA,NA,NA,NA,"Affected Population"
"125","MOSELLE","Azoudange","Farm","Azoudange",48.733333,6.816667,"03/02/2012","Animals",NA,NA,NA,NA,NA,NA,NA,NA,NA,NA,NA,NA,NA,NA,NA,NA,NA,"Affected Population"
"126","VOSGES","Domptail","Farm","Domptail",48.45,6.616667,"03/02/2012","Animals",NA,NA,NA,NA,NA,NA,NA,NA,NA,NA,NA,NA,NA,NA,NA,NA,NA,"Affected Population"
"127","MOSELLE","Launstroff","Farm","Launstroff",49.433333,6.5,"03/02/2012","Animals",NA,NA,NA,NA,NA,NA,NA,NA,NA,NA,NA,NA,NA,NA,NA,NA,NA,"Affected Population"
"128","MOSELLE","Honskirch","Farm","Honskirch",48.933333,6.983333,"03/02/2012","Animals",NA,NA,NA,NA,NA,NA,NA,NA,NA,NA,NA,NA,NA,NA,NA,NA,NA,"Affected Population"
"129","HAUTE-MARNE","Romain-sur-Meuse","Farm","Romain-sur-Meuse",48.166667,5.533333,"03/02/2012","Animals",NA,NA,NA,NA,NA,NA,NA,NA,NA,NA,NA,NA,NA,NA,NA,NA,NA,"Affected Population"
"130","CREUSE","Saint-Sulpice-le-Dunois","Farm","Saint-Sulpice-le-Dunois",46.3,1.733333,"03/02/2012","Animals",NA,NA,NA,NA,NA,NA,NA,NA,NA,NA,NA,NA,NA,NA,NA,NA,NA,"Affected Population"
"131","VIENNE","Saulgé","Farm","Saulgé",46.383333,0.883333,"03/02/2012","Animals",NA,NA,NA,NA,NA,NA,NA,NA,NA,NA,NA,NA,NA,NA,NA,NA,NA,"Affected Population"
"132","SOMME","Louvencourt","Farm","Louvencourt",50.1,2.5,"03/02/2012","Animals",NA,NA,NA,NA,NA,NA,NA,NA,NA,NA,NA,NA,NA,NA,NA,NA,NA,"Affected Population"
"133","MOSELLE","Foulcrey","Farm","Foulcrey",48.633333,6.866667,"03/02/2012","Animals",NA,NA,NA,NA,NA,NA,NA,NA,NA,NA,NA,NA,NA,NA,NA,NA,NA,"Affected Population"
"134","MOSELLE","Chicourt","Farm","Chicourt",48.916667,6.5,"03/02/2012","Animals",NA,NA,NA,NA,NA,NA,NA,NA,NA,NA,NA,NA,NA,NA,NA,NA,NA,"Affected Population"
"135","MOSELLE","Ibigny","Farm","Ibigny",48.65,6.9,"03/02/2012","Animals",NA,NA,NA,NA,NA,NA,NA,NA,NA,NA,NA,NA,NA,NA,NA,NA,NA,"Affected Population"
"136","SEINE-MARITIME","Greuville","Farm","Greuville",49.816667,0.916667,"03/02/2012","Animals",NA,NA,NA,NA,NA,NA,NA,NA,NA,NA,NA,NA,NA,NA,NA,NA,NA,"Affected Population"
"137","SOMME","Fourcigny","Farm","Fourcigny",49.766667,1.833333,"03/02/2012","Animals",NA,NA,NA,NA,NA,NA,NA,NA,NA,NA,NA,NA,NA,NA,NA,NA,NA,"Affected Population"
"138","HAUTE-MARNE","CHARMES-LA-GRANDE","Farm","CHARMES-LA-GRANDE",48.383333,4.983333,"03/02/2012","Animals",NA,NA,NA,NA,NA,NA,NA,NA,NA,NA,NA,NA,NA,NA,NA,NA,NA,"Affected Population"
"139","HAUTE-VIENNE","Aixe-sur-Vienne","Farm","Aixe-sur-Vienne",45.8,1.133333,"05/02/2012","Animals",NA,NA,NA,NA,NA,NA,NA,NA,NA,NA,NA,NA,NA,NA,NA,NA,NA,"Affected Population"
"140","CHER","MENETOU-RATEL","Farm","MENETOU-RATEL",47.35,2.75,"05/02/2012",NA,NA,NA,NA,NA,NA,NA,NA,NA,NA,NA,NA,"Animals",NA,NA,NA,NA,NA,"Affected Population"
"141","SOMME","Mesnil-Domqueur","Farm","Mesnil-Domqueur",50.133333,2.083333,"06/02/2012","Animals",NA,NA,NA,NA,NA,NA,NA,NA,NA,NA,NA,NA,NA,NA,NA,NA,NA,"Affected Population"
"142","AUBE","Morvilliers","Farm","Morvilliers",48.383333,4.616667,"06/02/2012","Animals",NA,NA,NA,NA,NA,NA,NA,NA,NA,NA,NA,NA,NA,NA,NA,NA,NA,"Affected Population"
"143","AISNE","Vierzy","Farm","Vierzy",49.283333,3.283333,"06/02/2012","Animals",NA,NA,NA,NA,NA,NA,NA,NA,NA,NA,NA,NA,NA,NA,NA,NA,NA,"Affected Population"
"144","BAS-RHIN","Eywiller","Farm","Eywiller",48.866667,7.116667,"06/02/2012","Animals",NA,NA,NA,NA,NA,NA,NA,NA,NA,NA,NA,NA,NA,NA,NA,NA,NA,"Affected Population"
"145","VIENNE","Montmorillon","Farm","Montmorillon",46.433333,0.866667,"06/02/2012","Animals",NA,NA,NA,NA,NA,NA,NA,NA,NA,NA,NA,NA,NA,NA,NA,NA,NA,"Affected Population"
"146","VIENNE","SAINT-MAURICE-LA-CLOUERE","Farm","SAINT-MAURICE-LA-CLOUERE",46.366667,0.416667,"06/02/2012","Animals",NA,NA,NA,NA,NA,NA,NA,NA,NA,NA,NA,NA,NA,NA,NA,NA,NA,"Affected Population"
"147","SEINE-MARITIME","Bréauté","Farm","Bréauté",49.633333,0.4,"06/02/2012","Animals",NA,NA,NA,NA,NA,NA,NA,NA,NA,NA,NA,NA,NA,NA,NA,NA,NA,"Affected Population"
"148","SEINE-MARITIME","Grandcourt","Farm","Grandcourt",49.916667,1.5,"06/02/2012",NA,NA,NA,NA,NA,NA,"Animals",NA,NA,NA,NA,NA,NA,NA,NA,NA,NA,NA,"Affected Population"
"149","VOSGES","Lamarche","Farm","Lamarche",48.066667,5.783333,"07/02/2012","Animals",NA,NA,NA,NA,NA,NA,NA,NA,NA,NA,NA,NA,NA,NA,NA,NA,NA,"Affected Population"
"150","VOSGES","Seraumont","Farm","Seraumont",48.433333,5.6,"07/02/2012","Animals",NA,NA,NA,NA,NA,NA,NA,NA,NA,NA,NA,NA,NA,NA,NA,NA,NA,"Affected Population"
"151","MOSELLE","Brulange","Farm","Brulange",48.966667,6.55,"07/02/2012","Animals",NA,NA,NA,NA,NA,NA,NA,NA,NA,NA,NA,NA,NA,NA,NA,NA,NA,"Affected Population"
"152","HAUTE-MARNE","Andilly-en-Bassigny","Farm","Andilly-en-Bassigny",47.916667,5.516667,"07/02/2012","Animals",NA,NA,NA,NA,NA,NA,NA,NA,NA,NA,NA,NA,NA,NA,NA,NA,NA,"Affected Population"
"153","HAUTE-MARNE","Meuvy","Farm","Meuvy",48.083333,5.55,"07/02/2012","Animals",NA,NA,NA,NA,NA,NA,NA,NA,NA,NA,NA,NA,NA,NA,NA,NA,NA,"Affected Population"
"154","HAUTE-MARNE","Charmes-la-Grande","Farm","Charmes-la-Grande",48.383333,4.983333,"07/02/2012","Animals",NA,NA,NA,NA,NA,NA,NA,NA,NA,NA,NA,NA,NA,NA,NA,NA,NA,"Affected Population"
"155","HAUTE-MARNE","Saulxures","Farm","Saulxures",47.95,5.583333,"07/02/2012","Animals",NA,NA,NA,NA,NA,NA,NA,NA,NA,NA,NA,NA,NA,NA,NA,NA,NA,"Affected Population"
"156","ARDENNES","Saint-Juvin","Farm","Saint-Juvin",49.333333,4.933333,"07/02/2012","Animals",NA,NA,NA,NA,NA,NA,NA,NA,NA,NA,NA,NA,NA,NA,NA,NA,NA,"Affected Population"
"157","VOSGES","Frebécourt","Farm","Frebécourt",48.383333,5.666667,"07/02/2012","Animals",NA,NA,NA,NA,NA,NA,NA,NA,NA,NA,NA,NA,NA,NA,NA,NA,NA,"Affected Population"
"158","VOSGES","Norroy","Farm","Norroy",48.216667,5.916667,"07/02/2012","Animals",NA,NA,NA,NA,NA,NA,NA,NA,NA,NA,NA,NA,NA,NA,NA,NA,NA,"Affected Population"
"159","VOSGES","Valfroicourt","Farm","Valfroicourt",48.2,6.1,"07/02/2012","Animals",NA,NA,NA,NA,NA,NA,NA,NA,NA,NA,NA,NA,NA,NA,NA,NA,NA,"Affected Population"
"160","HAUTE-MARNE","Dammartin-sur-Meuse","Farm","Dammartin-sur-Meuse",47.983333,5.566667,"07/02/2012","Animals",NA,NA,NA,NA,NA,NA,NA,NA,NA,NA,NA,NA,NA,NA,NA,NA,NA,"Affected Population"
"161","CÔTE-D'OR","Pouillenay","Farm","Pouillenay",47.5,4.466667,"07/02/2012","Animals",NA,NA,NA,NA,NA,NA,NA,NA,NA,NA,NA,NA,NA,NA,NA,NA,NA,"Affected Population"
"162","PAS-DE-CALAIS","Quoeux-Haut-Mainil","Farm","Quoeux-Haut-Mainil",50.3,2.1,"07/02/2012","Animals",NA,NA,NA,NA,NA,NA,NA,NA,NA,NA,NA,NA,NA,NA,NA,NA,NA,"Affected Population"
"163","VOSGES","Punerot","Farm","Punerot",48.483333,5.816667,"07/02/2012","Animals",NA,NA,NA,NA,NA,NA,NA,NA,NA,NA,NA,NA,NA,NA,NA,NA,NA,"Affected Population"
"164","AUBE","Lignol-le-Château","Farm","Lignol-le-Château",48.216667,4.816667,"07/02/2012","Animals",NA,NA,NA,NA,NA,NA,NA,NA,NA,NA,NA,NA,NA,NA,NA,NA,NA,"Affected Population"
"165","MEURTHE-ET-MOSELLE","Mattexey","Farm","Mattexey",48.45,6.516667,"07/02/2012","Animals",NA,NA,NA,NA,NA,NA,NA,NA,NA,NA,NA,NA,NA,NA,NA,NA,NA,"Affected Population"
"166","NORD","Winnezeele","Farm","Winnezeele",50.833333,2.55,"07/02/2012","Animals",NA,NA,NA,NA,NA,NA,NA,NA,NA,NA,NA,NA,NA,NA,NA,NA,NA,"Affected Population"
"167","MEUSE","Tilly-sur-Meuse","Farm","Tilly-sur-Meuse",49,5.433333,"07/02/2012","Animals",NA,NA,NA,NA,NA,NA,NA,NA,NA,NA,NA,NA,NA,NA,NA,NA,NA,"Affected Population"
"168","ARDENNES","Vandy","Farm","Vandy",49.433333,4.716667,"08/02/2012","Animals",NA,NA,NA,NA,NA,NA,NA,NA,NA,NA,NA,NA,NA,NA,NA,NA,NA,"Affected Population"
"169","EURE","Le Torpt","Farm","Le Torpt",49.333333,0.366667,"08/02/2012","Animals",NA,NA,NA,NA,NA,NA,NA,NA,NA,NA,NA,NA,NA,NA,NA,NA,NA,"Affected Population"
"170","SEINE-MARITIME","La Gaillarde","Farm","La Gaillarde",49.833333,0.866667,"08/02/2012","Animals",NA,NA,NA,NA,NA,NA,NA,NA,NA,NA,NA,NA,NA,NA,NA,NA,NA,"Affected Population"
"171","VIENNE","Château-Garnier","Farm","Château-Garnier",46.266667,0.416667,"08/02/2012","Animals",NA,NA,NA,NA,NA,NA,NA,NA,NA,NA,NA,NA,NA,NA,NA,NA,NA,"Affected Population"
"172","SEINE-MARITIME","Raffetot","Farm","Raffetot",49.6,0.516667,"08/02/2012","Animals",NA,NA,NA,NA,NA,NA,NA,NA,NA,NA,NA,NA,NA,NA,NA,NA,NA,"Affected Population"
"173","MOSELLE","Insming","Farm","Insming",48.95,6.866667,"08/02/2012","Animals",NA,NA,NA,NA,NA,NA,NA,NA,NA,NA,NA,NA,NA,NA,NA,NA,NA,"Affected Population"
"174","BAS-RHIN","Waldhambach","Farm","Waldhambach",48.916667,7.216667,"08/02/2012","Animals",NA,NA,NA,NA,NA,NA,NA,NA,NA,NA,NA,NA,NA,NA,NA,NA,NA,"Affected Population"
"175","DEUX-SÈVRES","Noirterre","Farm","Noirterre",46.866667,-0.4,"08/02/2012","Animals",NA,NA,NA,NA,NA,NA,NA,NA,NA,NA,NA,NA,NA,NA,NA,NA,NA,"Affected Population"
"176","AISNE","Fresnes-en-Tardenois","Farm","Fresnes-en-Tardenois",49.15,3.55,"08/02/2012",NA,NA,NA,NA,NA,NA,"Animals",NA,NA,NA,NA,NA,NA,NA,NA,NA,NA,NA,"Affected Population"
"177","VIENNE","Gouex","Farm","Gouex",46.366667,0.683333,"08/02/2012","Animals",NA,NA,NA,NA,NA,NA,NA,NA,NA,NA,NA,NA,NA,NA,NA,NA,NA,"Affected Population"
"178","SEINE-MARITIME","Ricarville","Farm","Ricarville",49.633333,0.6,"09/02/2012","Animals",NA,NA,NA,NA,NA,NA,NA,NA,NA,NA,NA,NA,NA,NA,NA,NA,NA,"Affected Population"
"179","VOSGES","Rémoville","Farm","Rémoville",48.366667,5.833333,"09/02/2012","Animals",NA,NA,NA,NA,NA,NA,NA,NA,NA,NA,NA,NA,NA,NA,NA,NA,NA,"Affected Population"
"180","HAUTE-MARNE","Bay-sur Aube","Farm","Bay-sur Aube",47.816667,5.066667,"09/02/2012","Animals",NA,NA,NA,NA,NA,NA,NA,NA,NA,NA,NA,NA,NA,NA,NA,NA,NA,"Affected Population"
"181","MEURTHE-ET-MOSELLE","Emberménil","Farm","Emberménil",48.633333,6.7,"09/02/2012","Animals",NA,NA,NA,NA,NA,NA,NA,NA,NA,NA,NA,NA,NA,NA,NA,NA,NA,"Affected Population"
"182","MEURTHE-ET-MOSELLE","Leintrey","Farm","Leintrey",48.616667,6.733333,"09/02/2012","Animals",NA,NA,NA,NA,NA,NA,NA,NA,NA,NA,NA,NA,NA,NA,NA,NA,NA,"Affected Population"
"183","NORD","Orsinval","Farm","Orsinval",50.266667,3.633333,"09/02/2012","Animals",NA,NA,NA,NA,NA,NA,NA,NA,NA,NA,NA,NA,NA,NA,NA,NA,NA,"Affected Population"
"184","VOSGES","Châtenois","Farm","Châtenois",48.3,5.833333,"09/02/2012","Animals",NA,NA,NA,NA,NA,NA,NA,NA,NA,NA,NA,NA,NA,NA,NA,NA,NA,"Affected Population"
"185","SEINE-MARITIME","Ocqueville","Farm","Ocqueville",49.8,0.683333,"09/02/2012","Animals",NA,NA,NA,NA,NA,NA,NA,NA,NA,NA,NA,NA,NA,NA,NA,NA,NA,"Affected Population"
"186","VOSGES","Gemmelaincourt","Farm","Gemmelaincourt",48.283333,5.966667,"09/02/2012","Animals",NA,NA,NA,NA,NA,NA,NA,NA,NA,NA,NA,NA,NA,NA,NA,NA,NA,"Affected Population"
"187","HAUTE-VIENNE","Saint-Sornin-la-Marche","Farm","Saint-Sornin-la-Marche",46.183333,0.983333,"09/02/2012","Animals",NA,NA,NA,NA,NA,NA,NA,NA,NA,NA,NA,NA,NA,NA,NA,NA,NA,"Affected Population"
"188","AISNE","Hary","Farm","Hary",49.783333,3.933333,"09/02/2012","Animals",NA,NA,NA,NA,NA,NA,NA,NA,NA,NA,NA,NA,NA,NA,NA,NA,NA,"Affected Population"
"189","EURE","Beuzeville","Farm","Beuzeville",49.333333,0.35,"09/02/2012","Animals",NA,NA,NA,NA,NA,NA,NA,NA,NA,NA,NA,NA,NA,NA,NA,NA,NA,"Affected Population"
"190","MEURTHE-ET-MOSELLE","Chaouilley","Farm","Chaouilley",48.433333,6.066667,"09/02/2012","Animals",NA,NA,NA,NA,NA,NA,NA,NA,NA,NA,NA,NA,NA,NA,NA,NA,NA,"Affected Population"
"191","MARNE","Sainte-Menehould","Farm","Sainte-Menehould",49.083333,4.9,"09/02/2012","Animals",NA,NA,NA,NA,NA,NA,NA,NA,NA,NA,NA,NA,NA,NA,NA,NA,NA,"Affected Population"
"192","SEINE-MARITIME","Auberville-la-Renault","Farm","Auberville-la-Renault",49.683333,0.366667,"09/02/2012","Animals",NA,NA,NA,NA,NA,NA,NA,NA,NA,NA,NA,NA,NA,NA,NA,NA,NA,"Affected Population"
"193","AISNE","Parfondeval","Farm","Parfondeval",49.733333,4.166667,"09/02/2012","Animals",NA,NA,NA,NA,NA,NA,NA,NA,NA,NA,NA,NA,NA,NA,NA,NA,NA,"Affected Population"
"194","MEUSE","BISLEE","Farm","BISLEE",48.866667,5.5,"09/02/2012","Animals",NA,NA,NA,NA,NA,NA,NA,NA,NA,NA,NA,NA,NA,NA,NA,NA,NA,"Affected Population"
"195","SEINE-MARITIME","Bolleville","Farm","Bolleville",49.6,0.566667,"10/02/2012","Animals",NA,NA,NA,NA,NA,NA,NA,NA,NA,NA,NA,NA,NA,NA,NA,NA,NA,"Affected Population"
"196","PAS-DE-CALAIS","Desvres","Farm","Desvres",50.666667,1.833333,"10/02/2012","Animals",NA,NA,NA,NA,NA,NA,NA,NA,NA,NA,NA,NA,NA,NA,NA,NA,NA,"Affected Population"
"197","NORD","Étroeungt","Farm","Étroeungt",50.05,3.933333,"10/02/2012","Animals",NA,NA,NA,NA,NA,NA,NA,NA,NA,NA,NA,NA,NA,NA,NA,NA,NA,"Affected Population"
"198","HAUTE-MARNE","Louvières","Farm","Louvières",48.033333,5.283333,"10/02/2012","Animals",NA,NA,NA,NA,NA,NA,NA,NA,NA,NA,NA,NA,NA,NA,NA,NA,NA,"Affected Population"
"199","MEURTHE-ET-MOSELLE","Goviller","Farm","Goviller",48.5,6.016667,"10/02/2012","Animals",NA,NA,NA,NA,NA,NA,NA,NA,NA,NA,NA,NA,NA,NA,NA,NA,NA,"Affected Population"
"200","MEUSE","Houdelaincourt","Farm","Houdelaincourt",48.55,5.466667,"10/02/2012","Animals",NA,NA,NA,NA,NA,NA,NA,NA,NA,NA,NA,NA,NA,NA,NA,NA,NA,"Affected Population"
"201","YONNE","Savigny-en-Terre-Plaine","Farm","Savigny-en-Terre-Plaine",47.5,4.083333,"10/02/2012","Animals",NA,NA,NA,NA,NA,NA,NA,NA,NA,NA,NA,NA,NA,NA,NA,NA,NA,"Affected Population"
"202","MOSELLE","Fossieux","Farm","Fossieux",48.85,6.333333,"10/02/2012","Animals",NA,NA,NA,NA,NA,NA,NA,NA,NA,NA,NA,NA,NA,NA,NA,NA,NA,"Affected Population"
"203","MANCHE","Rocheville","Farm","Rocheville",49.5,-1.6,"10/02/2012","Animals",NA,NA,NA,NA,NA,NA,NA,NA,NA,NA,NA,NA,NA,NA,NA,NA,NA,"Affected Population"
"204","MEUSE","Rouvrois-sur-Meuse","Farm","Rouvrois-sur-Meuse",48.95,5.516667,"10/02/2012","Animals",NA,NA,NA,NA,NA,NA,NA,NA,NA,NA,NA,NA,NA,NA,NA,NA,NA,"Affected Population"
"205","HAUTE-VIENNE","Tersannes","Farm","Tersannes",46.3,1.116667,"10/02/2012","Animals",NA,NA,NA,NA,NA,NA,NA,NA,NA,NA,NA,NA,NA,NA,NA,NA,NA,"Affected Population"
"206","MEURTHE-ET-MOSELLE","Coyviller","Farm","Coyviller",48.583333,6.283333,"10/02/2012","Animals",NA,NA,NA,NA,NA,NA,NA,NA,NA,NA,NA,NA,NA,NA,NA,NA,NA,"Affected Population"
"207","MANCHE","Magneville","Farm","Magneville",49.45,-1.55,"10/02/2012","Animals",NA,NA,NA,NA,NA,NA,NA,NA,NA,NA,NA,NA,NA,NA,NA,NA,NA,"Affected Population"
"208","MEUSE","Loison","Farm","Loison",49.316667,5.616667,"10/02/2012","Animals",NA,NA,NA,NA,NA,NA,NA,NA,NA,NA,NA,NA,NA,NA,NA,NA,NA,"Affected Population"
"209","MOSELLE","Fouligny","Farm","Fouligny",49.1,6.5,"10/02/2012","Animals",NA,NA,NA,NA,NA,NA,NA,NA,NA,NA,NA,NA,NA,NA,NA,NA,NA,"Affected Population"
"210","HAUTE-VIENNE","Darnac","Farm","Darnac",46.216667,0.966667,"10/02/2012","Animals",NA,NA,NA,NA,NA,NA,NA,NA,NA,NA,NA,NA,NA,NA,NA,NA,NA,"Affected Population"
"211","HAUTE-VIENNE","Oradour-Saint-Genest","Farm","Oradour-Saint-Genest",46.233333,1.033333,"10/02/2012","Animals",NA,NA,NA,NA,NA,NA,NA,NA,NA,NA,NA,NA,NA,NA,NA,NA,NA,"Affected Population"
"212","ALLIER","Chantelle","Farm","Chantelle",46.233333,3.15,"11/02/2012","Animals",NA,NA,NA,NA,NA,NA,NA,NA,NA,NA,NA,NA,NA,NA,NA,NA,NA,"Affected Population"
"213","HAUTE-VIENNE","SAINT-GEORGES-LES-LANDES","Farm","SAINT-GEORGES-LES-LANDES",46.35,1.333333,"12/02/2012","Animals",NA,NA,NA,NA,NA,NA,NA,NA,NA,NA,NA,NA,NA,NA,NA,NA,NA,"Affected Population"
"214","HAUTE-VIENNE","Mézières-sur-Issoire","Farm","Mézières-sur-Issoire",46.1,0.916667,"12/02/2012","Animals",NA,NA,NA,NA,NA,NA,NA,NA,NA,NA,NA,NA,NA,NA,NA,NA,NA,"Affected Population"
"215","VIENNE","Adriers","Farm","Adriers n°2",46.25,0.8,"13/02/2012","Animals",NA,NA,NA,NA,NA,NA,NA,NA,NA,NA,NA,NA,NA,NA,NA,NA,NA,"Affected Population"
"216","HAUTE-VIENNE","Saint-Ouen-sur-Gartempe","Farm","Saint-Ouen-sur-Gartempe",46.166667,1.066667,"13/02/2012","Animals",NA,NA,NA,NA,NA,NA,NA,NA,NA,NA,NA,NA,NA,NA,NA,NA,NA,"Affected Population"
"217","BAS-RHIN","Schopperten","Farm","Schopperten",48.95,7.05,"13/02/2012","Animals",NA,NA,NA,NA,NA,NA,NA,NA,NA,NA,NA,NA,NA,NA,NA,NA,NA,"Affected Population"
"218","VIENNE","Lussac-les-Châteaux","Farm","Lussac-les-Châteaux",46.4,0.716667,"13/02/2012","Animals",NA,NA,NA,NA,NA,NA,NA,NA,NA,NA,NA,NA,NA,NA,NA,NA,NA,"Affected Population"
"219","AISNE","Étreillers","Farm","Étreillers",49.816667,3.15,"13/02/2012","Animals",NA,NA,NA,NA,NA,NA,NA,NA,NA,NA,NA,NA,NA,NA,NA,NA,NA,"Affected Population"
"220","SEINE-MARITIME","Saint-Germain-sous-Cailly","Farm","Saint-Germain-sous-Cailly",49.583333,1.216667,"13/02/2012","Animals",NA,NA,NA,NA,NA,NA,NA,NA,NA,NA,NA,NA,NA,NA,NA,NA,NA,"Affected Population"
"221","MARNE","Sermaize-les-Bains","Farm","Sermaize-les-Bains",48.783333,4.916667,"13/02/2012","Animals",NA,NA,NA,NA,NA,NA,NA,NA,NA,NA,NA,NA,NA,NA,NA,NA,NA,"Affected Population"
"222","HAUTE-VIENNE","Oradour-Saint-Genest","Farm","Oradour-Saint-Genest",46.233333,1.033333,"13/02/2012","Animals",NA,NA,NA,NA,NA,NA,NA,NA,NA,NA,NA,NA,NA,NA,NA,NA,NA,"Affected Population"
"223","CHER","GROSSOUVRE","Farm","GROSSOUVRE",46.866667,2.933333,"13/02/2012","Animals",NA,NA,NA,NA,NA,NA,NA,NA,NA,NA,NA,NA,NA,NA,NA,NA,NA,"Affected Population"
"224","VIENNE","Marnay","Farm","Marnay",46.4,0.35,"13/02/2012","Animals",NA,NA,NA,NA,NA,NA,NA,NA,NA,NA,NA,NA,NA,NA,NA,NA,NA,"Affected Population"
"225","VIENNE","Adriers","Farm","Adriers n°1",46.25,0.8,"13/02/2012","Animals",NA,NA,NA,NA,NA,NA,NA,NA,NA,NA,NA,NA,NA,NA,NA,NA,NA,"Affected Population"
"226","AISNE","Jeantes","Farm","Jeantes",49.8,4.05,"13/02/2012","Animals",NA,NA,NA,NA,NA,NA,NA,NA,NA,NA,NA,NA,NA,NA,NA,NA,NA,"Affected Population"
"227","MOSELLE","Buhl-Lorraine","Farm","Buhl-Lorraine",48.716667,7.083333,"13/02/2012","Animals",NA,NA,NA,NA,NA,NA,NA,NA,NA,NA,NA,NA,NA,NA,NA,NA,NA,"Affected Population"
"228","HAUTE-SAÔNE","Bougey","Farm","Bougey",47.783333,5.866667,"13/02/2012","Animals",NA,NA,NA,NA,NA,NA,NA,NA,NA,NA,NA,NA,NA,NA,NA,NA,NA,"Affected Population"
"229","SEINE-MARITIME","Manéhouville","Farm","Manéhouville",49.833333,1.083333,"13/02/2012","Animals",NA,NA,NA,NA,NA,NA,NA,NA,NA,NA,NA,NA,NA,NA,NA,NA,NA,"Affected Population"
"230","SOMME","Beauquesne","Farm","Beauquesne",50.083333,2.4,"13/02/2012","Animals",NA,NA,NA,NA,NA,NA,NA,NA,NA,NA,NA,NA,NA,NA,NA,NA,NA,"Affected Population"
"231","YONNE","Montréal","Farm","Montréal",47.533333,4.033333,"14/02/2012","Animals",NA,NA,NA,NA,NA,NA,NA,NA,NA,NA,NA,NA,NA,NA,NA,NA,NA,"Affected Population"
"232","VIENNE","Lussac-les-Châteaux","Farm","Lussac-les-Châteaux",46.4,0.716667,"14/02/2012","Animals",NA,NA,NA,NA,NA,NA,NA,NA,NA,NA,NA,NA,NA,NA,NA,NA,NA,"Affected Population"
"233","ARDENNES","Montmeillant","Farm","Montmeillant",49.683333,4.333333,"14/02/2012","Animals",NA,NA,NA,NA,NA,NA,NA,NA,NA,NA,NA,NA,NA,NA,NA,NA,NA,"Affected Population"
"234","CHARENTE","Abzac","Farm","Abzac",46.1,0.7,"14/02/2012","Animals",NA,NA,NA,NA,NA,NA,NA,NA,NA,NA,NA,NA,NA,NA,NA,NA,NA,"Affected Population"
"235","PAS-DE-CALAIS","Cavron-Saint-Martin","Farm","Cavron-Saint-Martin",50.416667,2,"14/02/2012","Animals",NA,NA,NA,NA,NA,NA,NA,NA,NA,NA,NA,NA,NA,NA,NA,NA,NA,"Affected Population"
"236","MEUSE","Longeville-en-Barrois","Farm","Longeville-en-Barrois",48.733333,5.216667,"14/02/2012","Animals",NA,NA,NA,NA,NA,NA,NA,NA,NA,NA,NA,NA,NA,NA,NA,NA,NA,"Affected Population"
"237","MEURTHE-ET-MOSELLE","Laitre-sous-Amance","Farm","Laitre-sous-Amance",48.75,6.283333,"14/02/2012","Animals",NA,NA,NA,NA,NA,NA,NA,NA,NA,NA,NA,NA,NA,NA,NA,NA,NA,"Affected Population"
"238","MEURTHE-ET-MOSELLE","Sivry","Farm","Sivry n°2",48.833333,6.2,"14/02/2012","Animals",NA,NA,NA,NA,NA,NA,NA,NA,NA,NA,NA,NA,NA,NA,NA,NA,NA,"Affected Population"
"239","MEURTHE-ET-MOSELLE","Sivry","Farm","Sivry",48.833333,6.2,"14/02/2012",NA,NA,NA,NA,NA,NA,"Animals",NA,NA,NA,NA,NA,NA,NA,NA,NA,NA,NA,"Affected Population"
"240","MEUSE","Billy-sous-les-Côtes","Farm","Billy-sous-les-Côtes",49.016667,5.683333,"14/02/2012","Animals",NA,NA,NA,NA,NA,NA,NA,NA,NA,NA,NA,NA,NA,NA,NA,NA,NA,"Affected Population"
"241","NORD","Rousies","Farm","Rousies",50.266667,4,"14/02/2012","Animals",NA,NA,NA,NA,NA,NA,NA,NA,NA,NA,NA,NA,NA,NA,NA,NA,NA,"Affected Population"
"242","SEINE-MARITIME","Anvéville","Farm","Anvéville",49.7,0.733333,"14/02/2012","Animals",NA,NA,NA,NA,NA,NA,NA,NA,NA,NA,NA,NA,NA,NA,NA,NA,NA,"Affected Population"
"243","MEURTHE-ET-MOSELLE","Mousson","Farm","Mousson",48.9,6.083333,"14/02/2012","Animals",NA,NA,NA,NA,NA,NA,NA,NA,NA,NA,NA,NA,NA,NA,NA,NA,NA,"Affected Population"
"244","NORD","Wignehies","Farm","Wignehies",50.016667,4,"14/02/2012","Animals",NA,NA,NA,NA,NA,NA,NA,NA,NA,NA,NA,NA,NA,NA,NA,NA,NA,"Affected Population"
"245","MOSELLE","Gélucourt","Farm","Gélucourt",48.766667,6.716667,"14/02/2012","Animals",NA,NA,NA,NA,NA,NA,NA,NA,NA,NA,NA,NA,NA,NA,NA,NA,NA,"Affected Population"
"246","AISNE","Renneval","Farm","Renneval",49.733333,4.05,"14/02/2012","Animals",NA,NA,NA,NA,NA,NA,NA,NA,NA,NA,NA,NA,NA,NA,NA,NA,NA,"Affected Population"
"247","MEURTHE-ET-MOSELLE","Vaudémont","Farm","Vaudémont",48.416667,6.05,"14/02/2012","Animals",NA,NA,NA,NA,NA,NA,NA,NA,NA,NA,NA,NA,NA,NA,NA,NA,NA,"Affected Population"
"248","VIENNE","PAYROUX","Farm","PAYROUX",46.216667,0.483333,"14/02/2012","Animals",NA,NA,NA,NA,NA,NA,NA,NA,NA,NA,NA,NA,NA,NA,NA,NA,NA,"Affected Population"
"249","SEINE-MARITIME","Bolbec","Farm","Bolbec",49.566667,0.483333,"14/02/2012","Animals",NA,NA,NA,NA,NA,NA,NA,NA,NA,NA,NA,NA,NA,NA,NA,NA,NA,"Affected Population"
"250","MEURTHE-ET-MOSELLE","Manoncourt-en-Vermois","Farm","Manoncourt-en-Vermois",48.6,6.266667,"14/02/2012","Animals",NA,NA,NA,NA,NA,NA,NA,NA,NA,NA,NA,NA,NA,NA,NA,NA,NA,"Affected Population"
"251","MOSELLE","Bacourt","Farm","Bacourt",48.933333,6.416667,"14/02/2012","Animals",NA,NA,NA,NA,NA,NA,NA,NA,NA,NA,NA,NA,NA,NA,NA,NA,NA,"Affected Population"
"252","SEINE-MARITIME","Fontaine-le-Dun","Farm","Fontaine-le-Dun",49.816667,0.85,"15/02/2012","Animals",NA,NA,NA,NA,NA,NA,NA,NA,NA,NA,NA,NA,NA,NA,NA,NA,NA,"Affected Population"
"253","HAUTE-VIENNE","Saint-Léger-Magnazeix","Farm","Saint-Léger-Magnazeix",46.283333,1.25,"15/02/2012","Animals",NA,NA,NA,NA,NA,NA,NA,NA,NA,NA,NA,NA,NA,NA,NA,NA,NA,"Affected Population"
"254","MEURTHE-ET-MOSELLE","Bezaumont","Farm","Bezaumont",48.85,6.1,"15/02/2012","Animals",NA,NA,NA,NA,NA,NA,NA,NA,NA,NA,NA,NA,NA,NA,NA,NA,NA,"Affected Population"
"255","MANCHE","LA PERNELLE","Farm","LA PERNELLE",49.616667,-1.3,"15/02/2012","Animals",NA,NA,NA,NA,NA,NA,NA,NA,NA,NA,NA,NA,NA,NA,NA,NA,NA,"Affected Population"
"256","VIENNE","ADRIERS","Farm","ADRIERS",46.25,0.8,"15/02/2012","Animals",NA,NA,NA,NA,NA,NA,NA,NA,NA,NA,NA,NA,NA,NA,NA,NA,NA,"Affected Population"
"257","VIENNE","SAINT-MARTIN-L'ARS","Farm","SAINT-MARTIN-L'ARS",46.216667,0.533333,"15/02/2012","Animals",NA,NA,NA,NA,NA,NA,NA,NA,NA,NA,NA,NA,NA,NA,NA,NA,NA,"Affected Population"
"258","MOSELLE","RICHELING","Farm","RICHELING",49.033333,6.966667,"15/02/2012","Animals",NA,NA,NA,NA,NA,NA,NA,NA,NA,NA,NA,NA,NA,NA,NA,NA,NA,"Affected Population"
"259","VIENNE","Saint-Pierre-de-Maillé","Farm","Saint-Pierre-de-Maillé",46.683333,0.85,"15/02/2012","Animals",NA,NA,NA,NA,NA,NA,NA,NA,NA,NA,NA,NA,NA,NA,NA,NA,NA,"Affected Population"
"260","VIENNE","Archigny","Farm","Archigny",46.666667,0.65,"15/02/2012","Animals",NA,NA,NA,NA,NA,NA,NA,NA,NA,NA,NA,NA,NA,NA,NA,NA,NA,"Affected Population"
"261","HAUTE-VIENNE","VERNEUIL-MOUSTIERS","Farm","VERNEUIL-MOUSTIERS",46.35,1.133333,"15/02/2012","Animals",NA,NA,NA,NA,NA,NA,NA,NA,NA,NA,NA,NA,NA,NA,NA,NA,NA,"Affected Population"
"262","MEURTHE-ET-MOSELLE","Mailly-sur-Seille","Farm","Mailly-sur-Seille",48.916667,6.25,"15/02/2012","Animals",NA,NA,NA,NA,NA,NA,NA,NA,NA,NA,NA,NA,NA,NA,NA,NA,NA,"Affected Population"
"263","CÔTE-D'OR","Gevrolles","Farm","Gevrolles",47.983333,4.7805,"15/02/2012","Animals",NA,NA,NA,NA,NA,NA,NA,NA,NA,NA,NA,NA,NA,NA,NA,NA,NA,"Affected Population"
"264","INDRE","Vigoux","Farm","Vigoux",46.516667,1.483333,"15/02/2012","Animals",NA,NA,NA,NA,NA,NA,NA,NA,NA,NA,NA,NA,NA,NA,NA,NA,NA,"Affected Population"
"265","VIENNE","Pindray","Farm","Pindray n°2",46.483333,0.816667,"15/02/2012","Animals",NA,NA,NA,NA,NA,NA,NA,NA,NA,NA,NA,NA,NA,NA,NA,NA,NA,"Affected Population"
"266","HAUTE-VIENNE","Rancon","Farm","Rancon",46.133333,1.183333,"15/02/2012","Animals",NA,NA,NA,NA,NA,NA,NA,NA,NA,NA,NA,NA,NA,NA,NA,NA,NA,"Affected Population"
"267","AUBE","Metz-Robert","Farm","Metz-Robert",48.066667,4.116667,"15/02/2012",NA,NA,NA,NA,NA,NA,"Animals",NA,NA,NA,NA,NA,NA,NA,NA,NA,NA,NA,"Affected Population"
"268","HAUTE-VIENNE","CHATEAUPONSAC","Farm","CHATEAUPONSAC",46.133333,1.283333,"15/02/2012","Animals",NA,NA,NA,NA,NA,NA,NA,NA,NA,NA,NA,NA,NA,NA,NA,NA,NA,"Affected Population"
"269","HAUTE-VIENNE","AZAT-LE-RIS","Farm","AZAT-LE-RIS",46.3,1.116667,"15/02/2012","Animals",NA,NA,NA,NA,NA,NA,NA,NA,NA,NA,NA,NA,NA,NA,NA,NA,NA,"Affected Population"
"270","HAUTE-VIENNE","Oradour-Saint-Genest","Farm","Oradour-Saint-Genest",46.233333,1.033333,"15/02/2012","Animals",NA,NA,NA,NA,NA,NA,NA,NA,NA,NA,NA,NA,NA,NA,NA,NA,NA,"Affected Population"
"271","MANCHE","GIEVILLE","Farm","GIEVILLE",49.016667,-0.983333,"15/02/2012","Animals",NA,NA,NA,NA,NA,NA,NA,NA,NA,NA,NA,NA,NA,NA,NA,NA,NA,"Affected Population"
"272","VIENNE","SAINT-LEOMER","Farm","SAINT-LEOMER",46.433333,1,"15/02/2012","Animals",NA,NA,NA,NA,NA,NA,NA,NA,NA,NA,NA,NA,NA,NA,NA,NA,NA,"Affected Population"
"273","VIENNE","LA CHAPELLE-MONTREUIL","Farm","LA CHAPELLE-MONTREUIL",46.5333,0.1167,"15/02/2012","Animals",NA,NA,NA,NA,NA,NA,NA,NA,NA,NA,NA,NA,NA,NA,NA,NA,NA,"Affected Population"
"274","VIENNE","MOULISMES","Farm","MOULISMES",46.333333,0.816667,"15/02/2012","Animals",NA,NA,NA,NA,NA,NA,NA,NA,NA,NA,NA,NA,NA,NA,NA,NA,NA,"Affected Population"
"275","CÔTE-D'OR","Coulmier-le-Sec","Farm","Coulmier-le-Sec",47.75,4.483333,"15/02/2012","Animals",NA,NA,NA,NA,NA,NA,NA,NA,NA,NA,NA,NA,NA,NA,NA,NA,NA,"Affected Population"
"276","VIENNE","Bourg-Archambault","Farm","Bourg-Archambault",46.383333,1,"15/02/2012","Animals",NA,NA,NA,NA,NA,NA,NA,NA,NA,NA,NA,NA,NA,NA,NA,NA,NA,"Affected Population"
"277","VIENNE","AVAILLES-LIMOUZINE","Farm","AVAILLES-LIMOUZINE",46.116667,0.65,"15/02/2012","Animals",NA,NA,NA,NA,NA,NA,NA,NA,NA,NA,NA,NA,NA,NA,NA,NA,NA,"Affected Population"
"278","HAUTE-VIENNE","La Croix-sur-Gartempe","Farm","La Croix-sur-Gartempe",46.166667,0.983333,"15/02/2012","Animals",NA,NA,NA,NA,NA,NA,NA,NA,NA,NA,NA,NA,NA,NA,NA,NA,NA,"Affected Population"
"279","INDRE","Le Blanc","Farm","Le Blanc",46.633333,1.066667,"15/02/2012","Animals",NA,NA,NA,NA,NA,NA,NA,NA,NA,NA,NA,NA,NA,NA,NA,NA,NA,"Affected Population"
"280","SOMME","Authieule","Farm","Authieule",50.133333,2.366667,"15/02/2012","Animals",NA,NA,NA,NA,NA,NA,NA,NA,NA,NA,NA,NA,NA,NA,NA,NA,NA,"Affected Population"
"281","VIENNE","Le Vigeant","Farm","Le Vigeant",46.233333,0.65,"15/02/2012","Animals",NA,NA,NA,NA,NA,NA,NA,NA,NA,NA,NA,NA,NA,NA,NA,NA,NA,"Affected Population"
"282","VIENNE","Persac","Farm","Persac",46.35,0.7,"15/02/2012","Animals",NA,NA,NA,NA,NA,NA,NA,NA,NA,NA,NA,NA,NA,NA,NA,NA,NA,"Affected Population"
"283","PAS-DE-CALAIS","Wissant","Farm","Wissant",50.883333,1.666667,"15/02/2012","Animals",NA,NA,NA,NA,NA,NA,NA,NA,NA,NA,NA,NA,NA,NA,NA,NA,NA,"Affected Population"
"284","YONNE","Charbuy","Farm","Charbuy",47.816667,3.466667,"15/02/2012","Animals",NA,NA,NA,NA,NA,NA,NA,NA,NA,NA,NA,NA,NA,NA,NA,NA,NA,"Affected Population"
"285","VIENNE","JOURNET","Farm","JOURNET",46.466667,0.966667,"15/02/2012","Animals",NA,NA,NA,NA,NA,NA,NA,NA,NA,NA,NA,NA,NA,NA,NA,NA,NA,"Affected Population"
"286","VIENNE","THOLLET","Farm","THOLLET",46.42108,1.12298,"15/02/2012","Animals",NA,NA,NA,NA,NA,NA,NA,NA,NA,NA,NA,NA,NA,NA,NA,NA,NA,"Affected Population"
"287","MEURTHE-ET-MOSELLE","Bauzemont","Farm","Bauzemont",48.666667,6.533333,"15/02/2012","Animals",NA,NA,NA,NA,NA,NA,NA,NA,NA,NA,NA,NA,NA,NA,NA,NA,NA,"Affected Population"
"288","VIENNE","Pindray","Farm","Pindray n°1",46.483333,0.816667,"15/02/2012","Animals",NA,NA,NA,NA,NA,NA,NA,NA,NA,NA,NA,NA,NA,NA,NA,NA,NA,"Affected Population"
"289","VIENNE","La Roche-Posay","Farm","La Roche-Posay",46.783333,0.816667,"15/02/2012","Animals",NA,NA,NA,NA,NA,NA,NA,NA,NA,NA,NA,NA,NA,NA,NA,NA,NA,"Affected Population"
"290","VIENNE","Béthines","Farm","Béthines",46.55,0.983333,"16/02/2012","Animals",NA,NA,NA,NA,NA,NA,NA,NA,NA,NA,NA,NA,NA,NA,NA,NA,NA,"Affected Population"
"291","VIENNE","Adriers","Farm","Adriers",46.25,0.8,"16/02/2012","Animals",NA,NA,NA,NA,NA,NA,NA,NA,NA,NA,NA,NA,NA,NA,NA,NA,NA,"Affected Population"
"292","HAUTE-MARNE","Bettoncourt-le-Haut","Farm","Bettoncourt-le-Haut",48.383333,5.3,"16/02/2012","Animals",NA,NA,NA,NA,NA,NA,NA,NA,NA,NA,NA,NA,NA,NA,NA,NA,NA,"Affected Population"
"293","HAUTE-VIENNE","Peyrat-de-Bellac","Farm","Peyrat-de-Bellac",46.15,1.033333,"16/02/2012","Animals",NA,NA,NA,NA,NA,NA,NA,NA,NA,NA,NA,NA,NA,NA,NA,NA,NA,"Affected Population"
"294","MEURTHE-ET-MOSELLE","Maizières","Farm","Maizières",48.583333,6.066667,"16/02/2012","Animals",NA,NA,NA,NA,NA,NA,NA,NA,NA,NA,NA,NA,NA,NA,NA,NA,NA,"Affected Population"
"295","MOSELLE","Luttange","Farm","Luttange",49.266667,6.316667,"16/02/2012",NA,NA,NA,NA,NA,NA,"Animals",NA,NA,NA,NA,NA,NA,NA,NA,NA,NA,NA,"Affected Population"
"296","VIENNE","Bouresse","Farm","Bouresse",46.366667,0.616667,"16/02/2012","Animals",NA,NA,NA,NA,NA,NA,NA,NA,NA,NA,NA,NA,NA,NA,NA,NA,NA,"Affected Population"
"297","VIENNE","La Trimouille","Farm","La Trimouille",46.466667,1.05,"16/02/2012","Animals",NA,NA,NA,NA,NA,NA,NA,NA,NA,NA,NA,NA,NA,NA,NA,NA,NA,"Affected Population"
"298","AISNE","Gergny","Farm","Gergny",49.916667,3.916667,"16/02/2012","Animals",NA,NA,NA,NA,NA,NA,NA,NA,NA,NA,NA,NA,NA,NA,NA,NA,NA,"Affected Population"
"299","ARDENNES","Guincourt","Farm","Guincourt",49.566667,4.633333,"16/02/2012","Animals",NA,NA,NA,NA,NA,NA,NA,NA,NA,NA,NA,NA,NA,NA,NA,NA,NA,"Affected Population"
"300","HAUTE-VIENNE","Berneuil","Farm","Berneuil",46.066667,1.1,"16/02/2012","Animals",NA,NA,NA,NA,NA,NA,NA,NA,NA,NA,NA,NA,NA,NA,NA,NA,NA,"Affected Population"
"301","MOSELLE","Moyenvic","Farm","Moyenvic",48.783333,6.55,"16/02/2012","Animals",NA,NA,NA,NA,NA,NA,NA,NA,NA,NA,NA,NA,NA,NA,NA,NA,NA,"Affected Population"
"302","VIENNE","Montmorillon","Farm","Montmorillon",46.433333,0.866667,"16/02/2012","Animals",NA,NA,NA,NA,NA,NA,NA,NA,NA,NA,NA,NA,NA,NA,NA,NA,NA,"Affected Population"
"303","MEUSE","Combres-sous-les-Côtes","Farm","Combres-sous-les-Côtes",49.05,5.633333,"16/02/2012","Animals",NA,NA,NA,NA,NA,NA,NA,NA,NA,NA,NA,NA,NA,NA,NA,NA,NA,"Affected Population"
"304","MEURTHE-ET-MOSELLE","Domgermain","Farm","Domgermain",48.65,5.816667,"16/02/2012","Animals",NA,NA,NA,NA,NA,NA,NA,NA,NA,NA,NA,NA,NA,NA,NA,NA,NA,"Affected Population"
"305","HAUTE-MARNE","Rançonnières","Farm","Rançonnières",47.933333,5.55,"16/02/2012","Animals",NA,NA,NA,NA,NA,NA,NA,NA,NA,NA,NA,NA,NA,NA,NA,NA,NA,"Affected Population"
"306","VIENNE","Saint-Sécondin","Farm","Saint-Sécondin",46.333333,0.483333,"16/02/2012","Animals",NA,NA,NA,NA,NA,NA,NA,NA,NA,NA,NA,NA,NA,NA,NA,NA,NA,"Affected Population"
"307","HAUTE-MARNE","Bourbonne-les-Bains","Farm","Bourbonne-les-Bains",47.95,5.75,"16/02/2012","Animals",NA,NA,NA,NA,NA,NA,NA,NA,NA,NA,NA,NA,NA,NA,NA,NA,NA,"Affected Population"
"308","MEURTHE-ET-MOSELLE","Pulligny","Farm","Pulligny",48.55,6.15,"16/02/2012","Animals",NA,NA,NA,NA,NA,NA,NA,NA,NA,NA,NA,NA,NA,NA,NA,NA,NA,"Affected Population"
"309","PAS-DE-CALAIS","Grand Rullecourt","Farm","Grand Rullecourt",50.25,2.483333,"16/02/2012","Animals",NA,NA,NA,NA,NA,NA,NA,NA,NA,NA,NA,NA,NA,NA,NA,NA,NA,"Affected Population"
"310","VIENNE","Vernon","Farm","Vernon",46.45,0.483333,"16/02/2012","Animals",NA,NA,NA,NA,NA,NA,NA,NA,NA,NA,NA,NA,NA,NA,NA,NA,NA,"Affected Population"
"311","VIENNE","Bourg-Archambault","Farm","Bourg-Archambault",46.383333,1,"16/02/2012","Animals",NA,NA,NA,NA,NA,NA,NA,NA,NA,NA,NA,NA,NA,NA,NA,NA,NA,"Affected Population"
"312","HAUTE-MARNE","CHAMARANDES-CHOIGNES","Farm","CHAMARANDES-CHOIGNES",48.116667,5.133333,"16/02/2012","Animals",NA,NA,NA,NA,NA,NA,NA,NA,NA,NA,NA,NA,NA,NA,NA,NA,NA,"Affected Population"
"313","VIENNE","Mazerolles","Farm","Mazerolles",46.4,0.683333,"16/02/2012","Animals",NA,NA,NA,NA,NA,NA,NA,NA,NA,NA,NA,NA,NA,NA,NA,NA,NA,"Affected Population"
"314","YONNE","La Ferté-Loupière","Farm","La Ferté-Loupière",47.9,3.233333,"16/02/2012","Animals",NA,NA,NA,NA,NA,NA,NA,NA,NA,NA,NA,NA,NA,NA,NA,NA,NA,"Affected Population"
"315","MEURTHE-ET-MOSELLE","Chaouilley","Farm","Chaouilley",48.433333,6.066667,"16/02/2012","Animals",NA,NA,NA,NA,NA,NA,NA,NA,NA,NA,NA,NA,NA,NA,NA,NA,NA,"Affected Population"
"316","HAUTE-MARNE","Longeville-sur-la-Laines","Farm","Longeville-sur-la-Laines",48.45,4.683333,"16/02/2012",NA,NA,NA,NA,NA,NA,"Animals",NA,NA,NA,NA,NA,NA,NA,NA,NA,NA,NA,"Affected Population"
"317","VIENNE","Sainte-Radegonde","Farm","Sainte-Radegonde",46.616667,0.7,"16/02/2012","Animals",NA,NA,NA,NA,NA,NA,NA,NA,NA,NA,NA,NA,NA,NA,NA,NA,NA,"Affected Population"
"318","DEUX-SÈVRES","La Mothe-Saint-Héray","Farm","La Mothe-Saint-Héray",46.366667,-0.1,"16/02/2012","Animals",NA,NA,NA,NA,NA,NA,NA,NA,NA,NA,NA,NA,NA,NA,NA,NA,NA,"Affected Population"
"319","HAUTE-VIENNE","Oradour-Saint-Genest","Farm","Oradour-Saint-Genest",46.233333,1.033333,"16/02/2012","Animals",NA,NA,NA,NA,NA,NA,NA,NA,NA,NA,NA,NA,NA,NA,NA,NA,NA,"Affected Population"
"320","VIENNE","BETHINES","Farm","BETHINES",46.55,0.983333,"17/02/2012","Animals",NA,NA,NA,NA,NA,NA,NA,NA,NA,NA,NA,NA,NA,NA,NA,NA,NA,"Affected Population"
"321","MAINE-ET-LOIRE","Faveraye-Machelles","Farm","Faveraye-Machelles",47.25,-0.5,"17/02/2012","Animals",NA,NA,NA,NA,NA,NA,NA,NA,NA,NA,NA,NA,NA,NA,NA,NA,NA,"Affected Population"
"322","HAUTE-VIENNE","Saint-Sornin-Leulac","Farm","Saint-Sornin-Leulac",46.2,1.3,"17/02/2012","Animals",NA,NA,NA,NA,NA,NA,NA,NA,NA,NA,NA,NA,NA,NA,NA,NA,NA,"Affected Population"
"323","HAUTE-VIENNE","Tersannes","Farm","Tersannes",46.3,1.116667,"17/02/2012","Animals",NA,NA,NA,NA,NA,NA,NA,NA,NA,NA,NA,NA,NA,NA,NA,NA,NA,"Affected Population"
"324","MEURTHE-ET-MOSELLE","Prény","Farm","Prény",48.983333,6,"17/02/2012","Animals",NA,NA,NA,NA,NA,NA,NA,NA,NA,NA,NA,NA,NA,NA,NA,NA,NA,"Affected Population"
"325","HAUTE-MARNE","Malaincourt-sur-Meuse","Farm","Malaincourt-sur-Meuse",48.15,5.6,"17/02/2012",NA,NA,NA,NA,NA,NA,"Animals",NA,NA,NA,NA,NA,NA,NA,NA,NA,NA,NA,"Affected Population"
"326","CHARENTE","Saint-Saturnin-du-Bois","Farm","Saint-Saturnin-du-Bois",46.133333,-0.666667,"17/02/2012","Animals",NA,NA,NA,NA,NA,NA,NA,NA,NA,NA,NA,NA,NA,NA,NA,NA,NA,"Affected Population"
"327","VIENNE","SAINT-MAURICE-LA-CLOUERE","Farm","SAINT-MAURICE-LA-CLOUERE",46.366667,0.416667,"17/02/2012","Animals",NA,NA,NA,NA,NA,NA,NA,NA,NA,NA,NA,NA,NA,NA,NA,NA,NA,"Affected Population"
"328","HAUTE-VIENNE","Bussière-Poitevine","Farm","Bussière-Poitevine",46.233333,0.916667,"17/02/2012","Animals",NA,NA,NA,NA,NA,NA,NA,NA,NA,NA,NA,NA,NA,NA,NA,NA,NA,"Affected Population"
"329","HAUTE-VIENNE","Saint-Symphorien-sur-Couze","Farm","Saint-Symphorien-sur-Couze",46.05,1.233333,"17/02/2012","Animals",NA,NA,NA,NA,NA,NA,NA,NA,NA,NA,NA,NA,NA,NA,NA,NA,NA,"Affected Population"
"330","HAUTE-VIENNE","Dinsac","Farm","Dinsac",46.233333,1.116667,"17/02/2012","Animals",NA,NA,NA,NA,NA,NA,NA,NA,NA,NA,NA,NA,NA,NA,NA,NA,NA,"Affected Population"
"331","MEURTHE-ET-MOSELLE","ORMES-ET-VILLE","Farm","ORMES-ET-VILLE",48.483333,6.2,"17/02/2012","Animals",NA,NA,NA,NA,NA,NA,NA,NA,NA,NA,NA,NA,NA,NA,NA,NA,NA,"Affected Population"
"332","YONNE","Pourrain","Farm","Pourrain",47.75,3.416667,"17/02/2012","Animals",NA,NA,NA,NA,NA,NA,NA,NA,NA,NA,NA,NA,NA,NA,NA,NA,NA,"Affected Population"
"333","HAUTE-MARNE","Rangecourt","Farm","Rangecourt",48.05,5.483333,"17/02/2012","Animals",NA,NA,NA,NA,NA,NA,NA,NA,NA,NA,NA,NA,NA,NA,NA,NA,NA,"Affected Population"
"334","VIENNE","Mouterre-sur-Blourde","Farm","Mouterre-sur-Blourde",46.2,0.75,"17/02/2012","Animals",NA,NA,NA,NA,NA,NA,NA,NA,NA,NA,NA,NA,NA,NA,NA,NA,NA,"Affected Population"
"335","MEURTHE-ET-MOSELLE","Lironville","Farm","Lironville",48.866667,5.916667,"17/02/2012","Animals",NA,NA,NA,NA,NA,NA,NA,NA,NA,NA,NA,NA,NA,NA,NA,NA,NA,"Affected Population"
"336","HAUTE-VIENNE","Mézières-sur-Issoire","Farm","Mézières-sur-Issoire",46.1,0.916667,"17/02/2012","Animals",NA,NA,NA,NA,NA,NA,NA,NA,NA,NA,NA,NA,NA,NA,NA,NA,NA,"Affected Population"
"337","HAUT-RHIN","Sainte-Croix-aux-Mines","Farm","Sainte-Croix-aux-Mines",48.266667,7.216667,"17/02/2012","Animals",NA,NA,NA,NA,NA,NA,NA,NA,NA,NA,NA,NA,NA,NA,NA,NA,NA,"Affected Population"
"338","SEINE-MARITIME","Foucart","Farm","Foucart",49.616667,0.6,"17/02/2012","Animals",NA,NA,NA,NA,NA,NA,NA,NA,NA,NA,NA,NA,NA,NA,NA,NA,NA,"Affected Population"
"339","HAUTE-VIENNE","Saint-Sornin-la-Marche","Farm","Saint-Sornin-la-Marche",46.183333,0.983333,"17/02/2012","Animals",NA,NA,NA,NA,NA,NA,NA,NA,NA,NA,NA,NA,NA,NA,NA,NA,NA,"Affected Population"
"340","MEURTHE-ET-MOSELLE","Manoncourt-sur-Seille","Farm","Manoncourt-sur-Seille",48.866667,6.366667,"17/02/2012","Animals",NA,NA,NA,NA,NA,NA,NA,NA,NA,NA,NA,NA,NA,NA,NA,NA,NA,"Affected Population"
"341","MOSELLE","Fresnes-en-Saulnois","Farm","Fresnes-en-Saulnois",48.833333,6.433333,"17/02/2012","Animals",NA,NA,NA,NA,NA,NA,NA,NA,NA,NA,NA,NA,NA,NA,NA,NA,NA,"Affected Population"
"342","VIENNE","Queaux","Farm","Queaux",46.333333,0.666667,"17/02/2012","Animals",NA,NA,NA,NA,NA,NA,NA,NA,NA,NA,NA,NA,NA,NA,NA,NA,NA,"Affected Population"
"343","NIÈVRE","CHATEAU-CHINON(CAMPAGNE)","Farm","CHATEAU-CHINON(CAMPAGNE)",47.05,4.016667,"18/02/2012",NA,NA,NA,NA,NA,NA,"Animals",NA,NA,NA,NA,NA,NA,NA,NA,NA,NA,NA,"Affected Population"
"344","OISE","LE PLESSIER-SUR-BULLES","Farm","LE PLESSIER-SUR-BULLES",49.5,2.316667,"18/02/2012",NA,NA,NA,NA,NA,NA,NA,NA,NA,NA,NA,NA,"Animals",NA,NA,NA,NA,NA,"Affected Population"
"345","CHER","CROISY","Farm","CROISY",46.933333,2.8,"19/02/2012","Animals",NA,NA,NA,NA,NA,NA,NA,NA,NA,NA,NA,NA,NA,NA,NA,NA,NA,"Affected Population"
"346","VIENNE","MOUSSAC","Farm","MOUSSAC",46.2833,0.6833,"19/02/2012","Animals",NA,NA,NA,NA,NA,NA,NA,NA,NA,NA,NA,NA,NA,NA,NA,NA,NA,"Affected Population"
"347","HAUTE-VIENNE","Magnac-Laval","Farm","Magnac-Laval",46.216667,1.166667,"19/02/2012","Animals",NA,NA,NA,NA,NA,NA,NA,NA,NA,NA,NA,NA,NA,NA,NA,NA,NA,"Affected Population"
"348","VIENNE","Liglet","Farm","Liglet",46.516667,1.083333,"20/02/2012","Animals",NA,NA,NA,NA,NA,NA,NA,NA,NA,NA,NA,NA,NA,NA,NA,NA,NA,"Affected Population"
"349","HAUTE-SAÔNE","Aisey-et-Richecourt","Farm","Aisey-et-Richecourt",47.883333,5.95,"20/02/2012","Animals",NA,NA,NA,NA,NA,NA,NA,NA,NA,NA,NA,NA,NA,NA,NA,NA,NA,"Affected Population"
"350","VIENNE","Sénillé","Farm","Sénillé",46.766667,0.6,"20/02/2012","Animals",NA,NA,NA,NA,NA,NA,NA,NA,NA,NA,NA,NA,NA,NA,NA,NA,NA,"Affected Population"
"351","SOMME","Bailleul","Farm","Bailleul",50.033333,1.85,"20/02/2012","Animals",NA,NA,NA,NA,NA,NA,NA,NA,NA,NA,NA,NA,NA,NA,NA,NA,NA,"Affected Population"
"352","MOSELLE","Suisse","Farm","Suisse",48.966667,6.583333,"20/02/2012","Animals",NA,NA,NA,NA,NA,NA,NA,NA,NA,NA,NA,NA,NA,NA,NA,NA,NA,"Affected Population"
"353","VIENNE","COULONGES","Farm","COULONGES n°2",46.42108,1.12298,"20/02/2012","Animals",NA,NA,NA,NA,NA,NA,NA,NA,NA,NA,NA,NA,NA,NA,NA,NA,NA,"Affected Population"
"354","VOSGES","Tignécourt","Farm","Tignécourt",48.05,5.9,"20/02/2012","Animals",NA,NA,NA,NA,NA,NA,NA,NA,NA,NA,NA,NA,NA,NA,NA,NA,NA,"Affected Population"
"355","HAUTE-VIENNE","LIMOGES","Farm","LIMOGES",45.85,1.25,"20/02/2012","Animals",NA,NA,NA,NA,NA,NA,NA,NA,NA,NA,NA,NA,NA,NA,NA,NA,NA,"Affected Population"
"356","INDRE","LIGNAC","Farm","LIGNAC",46.466667,1.216667,"20/02/2012","Animals",NA,NA,NA,NA,NA,NA,NA,NA,NA,NA,NA,NA,NA,NA,NA,NA,NA,"Affected Population"
"357","HAUTE-VIENNE","Tersannes","Farm","Tersannes",46.3,1.116667,"20/02/2012","Animals",NA,NA,NA,NA,NA,NA,NA,NA,NA,NA,NA,NA,NA,NA,NA,NA,NA,"Affected Population"
"358","INDRE","TRANZAULT","Farm","TRANZAULT",46.616667,1.85,"20/02/2012","Animals",NA,NA,NA,NA,NA,NA,NA,NA,NA,NA,NA,NA,NA,NA,NA,NA,NA,"Affected Population"
"359","VIENNE","COULONGES","Farm","COULONGES n°1",46.42108,1.12298,"20/02/2012","Animals",NA,NA,NA,NA,NA,NA,NA,NA,NA,NA,NA,NA,NA,NA,NA,NA,NA,"Affected Population"
"360","VOSGES","Domjulien","Farm","Domjulien",48.25,6,"20/02/2012","Animals",NA,NA,NA,NA,NA,NA,NA,NA,NA,NA,NA,NA,NA,NA,NA,NA,NA,"Affected Population"
"361","SEINE-MARITIME","Saint-Martin-en-Campagne","Farm","Saint-Martin-en-Campagne",49.95,1.233333,"20/02/2012","Animals",NA,NA,NA,NA,NA,NA,NA,NA,NA,NA,NA,NA,NA,NA,NA,NA,NA,"Affected Population"
"362","VIENNE","Mauprévoir","Farm","Mauprévoir",46.166667,0.516667,"20/02/2012","Animals",NA,NA,NA,NA,NA,NA,NA,NA,NA,NA,NA,NA,NA,NA,NA,NA,NA,"Affected Population"
"363","HAUTE-VIENNE","Saint-Georges-les-Landes","Farm","Saint-Georges-les-Landes n°1",46.35,1.333333,"20/02/2012","Animals",NA,NA,NA,NA,NA,NA,NA,NA,NA,NA,NA,NA,NA,NA,NA,NA,NA,"Affected Population"
"364","HAUTE-VIENNE","Glanges","Farm","Glanges",45.666667,1.45,"20/02/2012","Animals",NA,NA,NA,NA,NA,NA,NA,NA,NA,NA,NA,NA,NA,NA,NA,NA,NA,"Affected Population"
"365","MARNE","Outines","Farm","Outines",48.55,4.65,"20/02/2012","Animals",NA,NA,NA,NA,NA,NA,NA,NA,NA,NA,NA,NA,NA,NA,NA,NA,NA,"Affected Population"
"366","VIENNE","MOUTERRE-SUR-BLOURDE","Farm","MOUTERRE-SUR-BLOURDE",46.2,0.75,"20/02/2012","Animals",NA,NA,NA,NA,NA,NA,NA,NA,NA,NA,NA,NA,NA,NA,NA,NA,NA,"Affected Population"
"367","HAUTE-VIENNE","La Bazeuge","Farm","La Bazeuge",46.25,1.1,"20/02/2012","Animals",NA,NA,NA,NA,NA,NA,NA,NA,NA,NA,NA,NA,NA,NA,NA,NA,NA,"Affected Population"
"368","CHARENTE","Pressignac","Farm","Pressignac",45.833333,0.733333,"20/02/2012","Animals",NA,NA,NA,NA,NA,NA,NA,NA,NA,NA,NA,NA,NA,NA,NA,NA,NA,"Affected Population"
"369","VIENNE","Saint-Pierre-de-Maillé","Farm","Saint-Pierre-de-Maillé",46.683333,0.85,"20/02/2012","Animals",NA,NA,NA,NA,NA,NA,NA,NA,NA,NA,NA,NA,NA,NA,NA,NA,NA,"Affected Population"
"370","VIENNE","Saint-Léomer","Farm","Saint-Léomer",46.433333,1,"20/02/2012","Animals",NA,NA,NA,NA,NA,NA,NA,NA,NA,NA,NA,NA,NA,NA,NA,NA,NA,"Affected Population"
"371","HAUTE-VIENNE","Saint-Georges-les-Landes","Farm","Saint-Georges-les-Landes n°2",46.35,1.333333,"20/02/2012","Animals",NA,NA,NA,NA,NA,NA,NA,NA,NA,NA,NA,NA,NA,NA,NA,NA,NA,"Affected Population"
"372","MOSELLE","Condé-Northen","Farm","Condé-Northen",49.166667,6.433333,"20/02/2012","Animals",NA,NA,NA,NA,NA,NA,NA,NA,NA,NA,NA,NA,NA,NA,NA,NA,NA,"Affected Population"
"373","HAUTE-VIENNE","Magnac-Laval","Farm","Magnac-Laval",46.216667,1.166667,"20/02/2012","Animals",NA,NA,NA,NA,NA,NA,NA,NA,NA,NA,NA,NA,NA,NA,NA,NA,NA,"Affected Population"
"374","HAUTE-VIENNE","Mézières-sur-Issoire","Farm","Mézières-sur-Issoire",46.1,0.916667,"20/02/2012","Animals",NA,NA,NA,NA,NA,NA,NA,NA,NA,NA,NA,NA,NA,NA,NA,NA,NA,"Affected Population"
"375","VOSGES","Punerot","Farm","Punerot",48.483333,5.816667,"20/02/2012","Animals",NA,NA,NA,NA,NA,NA,NA,NA,NA,NA,NA,NA,NA,NA,NA,NA,NA,"Affected Population"
"376","INDRE","OULCHES","Farm","OULCHES",46.616667,1.3,"20/02/2012","Animals",NA,NA,NA,NA,NA,NA,NA,NA,NA,NA,NA,NA,NA,NA,NA,NA,NA,"Affected Population"
"377","HAUTE-VIENNE","Dinsac","Farm","Dinsac",46.233333,1.116667,"20/02/2012",NA,NA,NA,NA,NA,NA,"Animals",NA,NA,NA,NA,NA,NA,NA,NA,NA,NA,NA,"Affected Population"
"378","SOMME","Montauban-de-Picardie","Farm","Montauban-de-Picardie",50,2.783333,"20/02/2012","Animals",NA,NA,NA,NA,NA,NA,NA,NA,NA,NA,NA,NA,NA,NA,NA,NA,NA,"Affected Population"
"379","VOSGES","Senonges","Farm","Senonges",48.15,6.066667,"20/02/2012","Animals",NA,NA,NA,NA,NA,NA,NA,NA,NA,NA,NA,NA,NA,NA,NA,NA,NA,"Affected Population"
"380","CHARENTE","CONFOLENS","Farm","CONFOLENS",46.016667,0.666667,"20/02/2012","Animals",NA,NA,NA,NA,NA,NA,NA,NA,NA,NA,NA,NA,NA,NA,NA,NA,NA,"Affected Population"
"381","VIENNE","Vernon","Farm","Vernon",46.45,0.483333,"20/02/2012","Animals",NA,NA,NA,NA,NA,NA,NA,NA,NA,NA,NA,NA,NA,NA,NA,NA,NA,"Affected Population"
"382","VIENNE","Adriers","Farm","Adriers",46.25,0.8,"20/02/2012","Animals",NA,NA,NA,NA,NA,NA,NA,NA,NA,NA,NA,NA,NA,NA,NA,NA,NA,"Affected Population"
"383","VIENNE","Gizay","Farm","Gizay",46.433333,0.416667,"20/02/2012","Animals",NA,NA,NA,NA,NA,NA,NA,NA,NA,NA,NA,NA,NA,NA,NA,NA,NA,"Affected Population"
"384","MEUSE","Villécloye","Farm","Villécloye",49.516667,5.4,"20/02/2012","Animals",NA,NA,NA,NA,NA,NA,NA,NA,NA,NA,NA,NA,NA,NA,NA,NA,NA,"Affected Population"
"385","AUBE","Morvilliers","Farm","Morvilliers",48.383333,4.616667,"20/02/2012","Animals",NA,NA,NA,NA,NA,NA,NA,NA,NA,NA,NA,NA,NA,NA,NA,NA,NA,"Affected Population"
"386","VOSGES","Houéville","Farm","Houéville",48.366667,5.816667,"20/02/2012","Animals",NA,NA,NA,NA,NA,NA,NA,NA,NA,NA,NA,NA,NA,NA,NA,NA,NA,"Affected Population"
"387","YONNE","Andryes","Farm","Andryes",47.516667,3.483333,"20/02/2012","Animals",NA,NA,NA,NA,NA,NA,NA,NA,NA,NA,NA,NA,NA,NA,NA,NA,NA,"Affected Population"
"388","CHARENTE","Lesterps","Farm","Lesterps",46.016667,0.783333,"20/02/2012","Animals",NA,NA,NA,NA,NA,NA,NA,NA,NA,NA,NA,NA,NA,NA,NA,NA,NA,"Affected Population"
"389","HAUTE-VIENNE","Blond","Farm","Blond",46.05,1.016667,"20/02/2012","Animals",NA,NA,NA,NA,NA,NA,NA,NA,NA,NA,NA,NA,NA,NA,NA,NA,NA,"Affected Population"
"390","VIENNE","BRIGUEIL-LE-CHANTRE","Farm","BRIGUEIL-LE-CHANTRE",46.4,1.083333,"20/02/2012","Animals",NA,NA,NA,NA,NA,NA,NA,NA,NA,NA,NA,NA,NA,NA,NA,NA,NA,"Affected Population"
"391","VIENNE","USSON-DU-POITOU","Farm","USSON-DU-POITOU",46.283333,0.533333,"20/02/2012","Animals",NA,NA,NA,NA,NA,NA,NA,NA,NA,NA,NA,NA,NA,NA,NA,NA,NA,"Affected Population"
"392","YONNE","Beauvilliers","Farm","Beauvilliers",47.416667,4.033333,"21/02/2012","Animals",NA,NA,NA,NA,NA,NA,NA,NA,NA,NA,NA,NA,NA,NA,NA,NA,NA,"Affected Population"
"393","YONNE","Précy-sur-Vrin","Farm","Précy-sur-Vrin",47.966667,3.25,"21/02/2012","Animals",NA,NA,NA,NA,NA,NA,NA,NA,NA,NA,NA,NA,NA,NA,NA,NA,NA,"Affected Population"
"394","CALVADOS","Saint-Martin-aux-Chartrains","Farm","Saint-Martin-aux-Chartrains",49.316667,0.15,"21/02/2012",NA,NA,NA,NA,NA,NA,"Animals",NA,NA,NA,NA,NA,NA,NA,NA,NA,NA,NA,"Affected Population"
"395","MEURTHE-ET-MOSELLE","Maixe","Farm","Maixe",48.65,6.433333,"21/02/2012","Animals",NA,NA,NA,NA,NA,NA,NA,NA,NA,NA,NA,NA,NA,NA,NA,NA,NA,"Affected Population"
"396","MEUSE","Thonne-le-Thil","Farm","Thonne-le-Thil",49.583333,5.35,"21/02/2012","Animals",NA,NA,NA,NA,NA,NA,NA,NA,NA,NA,NA,NA,NA,NA,NA,NA,NA,"Affected Population"
"397","NORD","Avesnelles","Farm","Avesnelles",50.116667,3.95,"21/02/2012","Animals",NA,NA,NA,NA,NA,NA,NA,NA,NA,NA,NA,NA,NA,NA,NA,NA,NA,"Affected Population"
"398","NORD","Rumegies","Farm","Rumegies",50.483333,3.35,"21/02/2012","Animals",NA,NA,NA,NA,NA,NA,NA,NA,NA,NA,NA,NA,NA,NA,NA,NA,NA,"Affected Population"
"399","SOMME","Biarre","Farm","Biarre",49.716667,2.866667,"21/02/2012","Animals",NA,NA,NA,NA,NA,NA,NA,NA,NA,NA,NA,NA,NA,NA,NA,NA,NA,"Affected Population"
"400","SEINE-MARITIME","Saint-Vincent-Cramesnil","Farm","Saint-Vincent-Cramesnil",49.5,0.366667,"21/02/2012","Animals",NA,NA,NA,NA,NA,NA,NA,NA,NA,NA,NA,NA,NA,NA,NA,NA,NA,"Affected Population"
"401","HAUTE-VIENNE","Magnac-Laval","Farm","Magnac-Laval",46.216667,1.166667,"21/02/2012","Animals",NA,NA,NA,NA,NA,NA,NA,NA,NA,NA,NA,NA,NA,NA,NA,NA,NA,"Affected Population"
"402","INDRE","LE PECHEREAU","Farm","LE PECHEREAU",46.583333,1.55,"21/02/2012","Animals",NA,NA,NA,NA,NA,NA,NA,NA,NA,NA,NA,NA,NA,NA,NA,NA,NA,"Affected Population"
"403","CHARENTE","Oradour-Fanais","Farm","Oradour-Fanais",46.116667,0.783333,"21/02/2012","Animals",NA,NA,NA,NA,NA,NA,NA,NA,NA,NA,NA,NA,NA,NA,NA,NA,NA,"Affected Population"
"404","MEURTHE-ET-MOSELLE","Vaudeville","Farm","Vaudeville",48.466667,6.2,"21/02/2012","Animals",NA,NA,NA,NA,NA,NA,NA,NA,NA,NA,NA,NA,NA,NA,NA,NA,NA,"Affected Population"
"405","SEINE-MARITIME","Baons-le-Comte","Farm","Baons-le-Comte",49.65,0.783333,"21/02/2012","Animals",NA,NA,NA,NA,NA,NA,NA,NA,NA,NA,NA,NA,NA,NA,NA,NA,NA,"Affected Population"
"406","HAUTE-MARNE","Marcilly-en-Bassigny","Farm","Marcilly-en-Bassigny",47.9,5.516667,"21/02/2012","Animals",NA,NA,NA,NA,NA,NA,NA,NA,NA,NA,NA,NA,NA,NA,NA,NA,NA,"Affected Population"
"407","HAUTE-MARNE","Anrosey","Farm","Anrosey",47.833333,5.666667,"21/02/2012","Animals",NA,NA,NA,NA,NA,NA,NA,NA,NA,NA,NA,NA,NA,NA,NA,NA,NA,"Affected Population"
"408","MEUSE","Trémont-sur-Saulx","Farm","Trémont-sur-Saulx",48.75,5.05,"21/02/2012","Animals",NA,NA,NA,NA,NA,NA,NA,NA,NA,NA,NA,NA,NA,NA,NA,NA,NA,"Affected Population"
"409","NIÈVRE","Donzy","Farm","Donzy",47.283333,3.233333,"21/02/2012","Animals",NA,NA,NA,NA,NA,NA,NA,NA,NA,NA,NA,NA,NA,NA,NA,NA,NA,"Affected Population"
"410","SEINE-MARITIME","Hugleville-en-Caux","Farm","Hugleville-en-Caux",49.633333,0.983333,"21/02/2012","Animals",NA,NA,NA,NA,NA,NA,NA,NA,NA,NA,NA,NA,NA,NA,NA,NA,NA,"Affected Population"
"411","VIENNE","Saulgé","Farm","Saulgé n°5",46.383333,0.883333,"21/02/2012","Animals",NA,NA,NA,NA,NA,NA,NA,NA,NA,NA,NA,NA,NA,NA,NA,NA,NA,"Affected Population"
"412","VOSGES","Belrupt","Farm","Belrupt",48.083333,6.1,"21/02/2012","Animals",NA,NA,NA,NA,NA,NA,NA,NA,NA,NA,NA,NA,NA,NA,NA,NA,NA,"Affected Population"
"413","ARDENNES","Euilly-et-Lombut","Farm","Euilly-et-Lombut n°1",49.633333,5.116667,"21/02/2012","Animals",NA,NA,NA,NA,NA,NA,NA,NA,NA,NA,NA,NA,NA,NA,NA,NA,NA,"Affected Population"
"414","ARDENNES","Euilly-et-Lombut","Farm","Euilly-et-Lombut n°2",49.633333,5.116667,"21/02/2012","Animals",NA,NA,NA,NA,NA,NA,NA,NA,NA,NA,NA,NA,NA,NA,NA,NA,NA,"Affected Population"
"415","ALLIER","Avermes","Farm","Avermes",46.583333,3.3,"21/02/2012","Animals",NA,NA,NA,NA,NA,NA,NA,NA,NA,NA,NA,NA,NA,NA,NA,NA,NA,"Affected Population"
"416","PAS-DE-CALAIS","CREQUY","Farm","CREQUY",50.483333,2.05,"21/02/2012","Animals",NA,NA,NA,NA,NA,NA,NA,NA,NA,NA,NA,NA,NA,NA,NA,NA,NA,"Affected Population"
"417","VIENNE","LATHUS-SAINT-REMY","Farm","LATHUS-SAINT-REMY",46.383333,0.883333,"21/02/2012","Animals",NA,NA,NA,NA,NA,NA,NA,NA,NA,NA,NA,NA,NA,NA,NA,NA,NA,"Affected Population"
"418","INDRE-ET-LOIRE","abilly","Farm","abilly",46.916667,0.8,"21/02/2012","Animals",NA,NA,NA,NA,NA,NA,NA,NA,NA,NA,NA,NA,NA,NA,NA,NA,NA,"Affected Population"
"419","CALVADOS","Aunay-sur-Odon","Farm","Aunay-sur-Odon",49.016667,-0.633333,"21/02/2012","Animals",NA,NA,NA,NA,NA,NA,NA,NA,NA,NA,NA,NA,NA,NA,NA,NA,NA,"Affected Population"
"420","HAUTE-MARNE","Chevillon","Farm","Chevillon",48.533333,5.133333,"21/02/2012","Animals",NA,NA,NA,NA,NA,NA,NA,NA,NA,NA,NA,NA,NA,NA,NA,NA,NA,"Affected Population"
"421","HAUTE-MARNE","Val-de-Meuse","Farm","Val-de-Meuse",47.983333,5.566667,"21/02/2012","Animals",NA,NA,NA,NA,NA,NA,NA,NA,NA,NA,NA,NA,NA,NA,NA,NA,NA,"Affected Population"
"422","HAUTE-MARNE","Dammartin-sur-Meuse","Farm","Dammartin-sur-Meuse",48.15,5.566667,"21/02/2012","Animals",NA,NA,NA,NA,NA,NA,NA,NA,NA,NA,NA,NA,NA,NA,NA,NA,NA,"Affected Population"
"423","MOSELLE","Haboudange","Farm","Haboudange",48.883333,6.616667,"21/02/2012","Animals",NA,NA,NA,NA,NA,NA,NA,NA,NA,NA,NA,NA,NA,NA,NA,NA,NA,"Affected Population"
"424","VIENNE","Saulgé","Farm","Saulgé n°1",46.383333,0.883333,"21/02/2012","Animals",NA,NA,NA,NA,NA,NA,NA,NA,NA,NA,NA,NA,NA,NA,NA,NA,NA,"Affected Population"
"425","VIENNE","Saulgé","Farm","Saulgé n°3",46.383333,0.883333,"21/02/2012","Animals",NA,NA,NA,NA,NA,NA,NA,NA,NA,NA,NA,NA,NA,NA,NA,NA,NA,"Affected Population"
"426","VIENNE","Le Vigeant","Farm","Le Vigeant n°1",46.233333,0.65,"21/02/2012","Animals",NA,NA,NA,NA,NA,NA,NA,NA,NA,NA,NA,NA,NA,NA,NA,NA,NA,"Affected Population"
"427","YONNE","Sainte-Colombe","Farm","Sainte-Colombe",47.566667,3.233333,"21/02/2012","Animals",NA,NA,NA,NA,NA,NA,NA,NA,NA,NA,NA,NA,NA,NA,NA,NA,NA,"Affected Population"
"428","HAUTE-MARNE","Marault","Farm","Marault",48.183333,5.1,"21/02/2012",NA,NA,NA,NA,NA,NA,"Animals",NA,NA,NA,NA,NA,NA,NA,NA,NA,NA,NA,"Affected Population"
"429","OISE","Saint-Quentin-des-Prés","Farm","Saint-Quentin-des-Prés",49.516667,1.75,"21/02/2012","Animals",NA,NA,NA,NA,NA,NA,NA,NA,NA,NA,NA,NA,NA,NA,NA,NA,NA,"Affected Population"
"430","YONNE","Saints","Farm","Saints",47.616667,3.266667,"21/02/2012","Animals",NA,NA,NA,NA,NA,NA,NA,NA,NA,NA,NA,NA,NA,NA,NA,NA,NA,"Affected Population"
"431","ORNE","Neuville-sur-Touques","Farm","Neuville-sur-Touques",48.85,0.283333,"21/02/2012","Animals",NA,NA,NA,NA,NA,NA,NA,NA,NA,NA,NA,NA,NA,NA,NA,NA,NA,"Affected Population"
"432","MAYENNE","Grez-en-Bouère","Farm","Grez-en-Bouère",47.883333,-0.516667,"21/02/2012","Animals",NA,NA,NA,NA,NA,NA,NA,NA,NA,NA,NA,NA,NA,NA,NA,NA,NA,"Affected Population"
"433","MEURTHE-ET-MOSELLE","Crion","Farm","Crion",48.633333,6.533333,"21/02/2012","Animals",NA,NA,NA,NA,NA,NA,NA,NA,NA,NA,NA,NA,NA,NA,NA,NA,NA,"Affected Population"
"434","MEURTHE-ET-MOSELLE","Mattexey","Farm","Mattexey",48.45,6.516667,"21/02/2012","Animals",NA,NA,NA,NA,NA,NA,NA,NA,NA,NA,NA,NA,NA,NA,NA,NA,NA,"Affected Population"
"435","HAUTE-VIENNE","Oradour-Saint-Genest","Farm","Oradour-Saint-Genest",46.233333,1.033333,"21/02/2012","Animals",NA,NA,NA,NA,NA,NA,NA,NA,NA,NA,NA,NA,NA,NA,NA,NA,NA,"Affected Population"
"436","HAUTE-MARNE","Serqueux","Farm","Serqueux",47.983333,5.733333,"21/02/2012","Animals",NA,NA,NA,NA,NA,NA,NA,NA,NA,NA,NA,NA,NA,NA,NA,NA,NA,"Affected Population"
"437","ARDENNES","Givron","Farm","Givron n°2",49.65,4.283333,"21/02/2012","Animals",NA,NA,NA,NA,NA,NA,NA,NA,NA,NA,NA,NA,NA,NA,NA,NA,NA,"Affected Population"
"438","VIENNE","Coulonges","Farm","Coulonges",46.4,1.083333,"21/02/2012","Animals",NA,NA,NA,NA,NA,NA,NA,NA,NA,NA,NA,NA,NA,NA,NA,NA,NA,"Affected Population"
"439","ARDENNES","Vandy","Farm","Vandy",49.433333,4.716667,"21/02/2012","Animals",NA,NA,NA,NA,NA,NA,NA,NA,NA,NA,NA,NA,NA,NA,NA,NA,NA,"Affected Population"
"440","HAUTE-VIENNE","Saint-Barbant","Farm","Saint-Barbant",46.166667,0.85,"21/02/2012","Animals",NA,NA,NA,NA,NA,NA,NA,NA,NA,NA,NA,NA,NA,NA,NA,NA,NA,"Affected Population"
"441","SEINE-MARITIME","La Cerlangue","Farm","La Cerlangue",49.5,0.416667,"21/02/2012","Animals",NA,NA,NA,NA,NA,NA,NA,NA,NA,NA,NA,NA,NA,NA,NA,NA,NA,"Affected Population"
"442","ARDENNES","Givron","Farm","Givron n°1",49.65,4.283333,"21/02/2012","Animals",NA,NA,NA,NA,NA,NA,NA,NA,NA,NA,NA,NA,NA,NA,NA,NA,NA,"Affected Population"
"443","MEURTHE-ET-MOSELLE","Clérey-sur-Brénon","Farm","Clérey-sur-Brénon",48.5,6.133333,"21/02/2012",NA,NA,NA,NA,NA,NA,"Animals",NA,NA,NA,NA,NA,NA,NA,NA,NA,NA,NA,"Affected Population"
"444","HAUTE-VIENNE","Blanzac","Farm","Blanzac",46.133333,1.116667,"21/02/2012","Animals",NA,NA,NA,NA,NA,NA,NA,NA,NA,NA,NA,NA,NA,NA,NA,NA,NA,"Affected Population"
"445","VIENNE","NOUAILLE-MAUPERTUIS","Farm","NOUAILLE-MAUPERTUIS",46.516667,0.416667,"21/02/2012","Animals",NA,NA,NA,NA,NA,NA,NA,NA,NA,NA,NA,NA,NA,NA,NA,NA,NA,"Affected Population"
"446","ORNE","ginai","Farm","ginai",48.766667,0.183333,"21/02/2012","Animals",NA,NA,NA,NA,NA,NA,NA,NA,NA,NA,NA,NA,NA,NA,NA,NA,NA,"Affected Population"
"447","HAUTE-MARNE","Nogent","Farm","Nogent",48.033333,5.45,"21/02/2012","Animals",NA,NA,NA,NA,NA,NA,NA,NA,NA,NA,NA,NA,NA,NA,NA,NA,NA,"Affected Population"
"448","CALVADOS","formigny","Farm","formigny",49.333333,-0.9,"21/02/2012",NA,NA,NA,NA,NA,NA,"Animals",NA,NA,NA,NA,NA,NA,NA,NA,NA,NA,NA,"Affected Population"
"449","VIENNE","La Chapelle-Montreuil","Farm","La Chapelle-Montreuil",46.55,0.15,"21/02/2012","Animals",NA,NA,NA,NA,NA,NA,NA,NA,NA,NA,NA,NA,NA,NA,NA,NA,NA,"Affected Population"
"450","VIENNE","Saulgé","Farm","Saulgé n°4",46.383333,0.883333,"21/02/2012","Animals",NA,NA,NA,NA,NA,NA,NA,NA,NA,NA,NA,NA,NA,NA,NA,NA,NA,"Affected Population"
"451","YONNE","Saint-Martin-sur-Ouanne","Farm","Saint-Martin-sur-Ouanne",47.833333,3.1,"21/02/2012","Animals",NA,NA,NA,NA,NA,NA,NA,NA,NA,NA,NA,NA,NA,NA,NA,NA,NA,"Affected Population"
"452","LOIRET","Bonny-sur-Loire","Farm","Bonny-sur-Loire",47.566667,2.833333,"21/02/2012","Animals",NA,NA,NA,NA,NA,NA,NA,NA,NA,NA,NA,NA,NA,NA,NA,NA,NA,"Affected Population"
"453","PAS-DE-CALAIS","Attin","Farm","Attin",50.483333,1.75,"21/02/2012","Animals",NA,NA,NA,NA,NA,NA,NA,NA,NA,NA,NA,NA,NA,NA,NA,NA,NA,"Affected Population"
"454","AUBE","Sommeval","Farm","Sommeval",48.166667,3.966667,"21/02/2012","Animals",NA,NA,NA,NA,NA,NA,NA,NA,NA,NA,NA,NA,NA,NA,NA,NA,NA,"Affected Population"
"455","OISE","Blicourt","Farm","Blicourt",49.55,2.05,"21/02/2012","Animals",NA,NA,NA,NA,NA,NA,NA,NA,NA,NA,NA,NA,NA,NA,NA,NA,NA,"Affected Population"
"456","HAUTE-VIENNE","Les Grands Chézeaux","Farm","Les Grands Chézeaux",46.35,1.4,"21/02/2012","Animals",NA,NA,NA,NA,NA,NA,NA,NA,NA,NA,NA,NA,NA,NA,NA,NA,NA,"Affected Population"
"457","VOSGES","Trémonzey","Farm","Trémonzey",47.966667,6.233333,"21/02/2012","Animals",NA,NA,NA,NA,NA,NA,NA,NA,NA,NA,NA,NA,NA,NA,NA,NA,NA,"Affected Population"
"458","NORD","Wignehies","Farm","Wignehies",50.016667,4,"21/02/2012",NA,NA,NA,NA,NA,NA,"Animals",NA,NA,NA,NA,NA,NA,NA,NA,NA,NA,NA,"Affected Population"
"459","NORD","Fontaine-au-Bois","Farm","Fontaine-au-Bois",50.15,3.65,"21/02/2012","Animals",NA,NA,NA,NA,NA,NA,NA,NA,NA,NA,NA,NA,NA,NA,NA,NA,NA,"Affected Population"
"460","VIENNE","Le Vigeant","Farm","Le Vigeant n°2",46.233333,0.65,"21/02/2012","Animals",NA,NA,NA,NA,NA,NA,NA,NA,NA,NA,NA,NA,NA,NA,NA,NA,NA,"Affected Population"
"461","HAUTE-MARNE","semoutiers","Farm","semoutiers",48.116667,5.133333,"21/02/2012","Animals",NA,NA,NA,NA,NA,NA,NA,NA,NA,NA,NA,NA,NA,NA,NA,NA,NA,"Affected Population"
"462","VIENNE","ADRIERS","Farm","ADRIERS",46.25,0.8,"21/02/2012","Animals",NA,NA,NA,NA,NA,NA,NA,NA,NA,NA,NA,NA,NA,NA,NA,NA,NA,"Affected Population"
"463","CALVADOS","Clinchamps-sur-Orne","Farm","Clinchamps-sur-Orne",49.083333,-0.4,"21/02/2012",NA,NA,NA,NA,NA,NA,"Animals",NA,NA,NA,NA,NA,NA,NA,NA,NA,NA,NA,"Affected Population"
"464","ORNE","Saint-Julien-sur-Sarthe","Farm","Saint-Julien-sur-Sarthe",48.483333,0.35,"21/02/2012","Animals",NA,NA,NA,NA,NA,NA,NA,NA,NA,NA,NA,NA,NA,NA,NA,NA,NA,"Affected Population"
"465","HAUTE-MARNE","Beurville","Farm","Beurville",48.316667,4.833333,"21/02/2012","Animals",NA,NA,NA,NA,NA,NA,NA,NA,NA,NA,NA,NA,NA,NA,NA,NA,NA,"Affected Population"
"466","ORNE","Coulonges-sur-Sarthe","Farm","Coulonges-sur-Sarthe",48.533333,0.4,"21/02/2012","Animals",NA,NA,NA,NA,NA,NA,NA,NA,NA,NA,NA,NA,NA,NA,NA,NA,NA,"Affected Population"
"467","VIENNE","Saulgé","Farm","Saulgé n°2",46.383333,0.883333,"21/02/2012","Animals",NA,NA,NA,NA,NA,NA,NA,NA,NA,NA,NA,NA,NA,NA,NA,NA,NA,"Affected Population"
"468","ARDENNES","Carignan","Farm","Carignan bis",49.633333,5.166667,"21/02/2012","Animals",NA,NA,NA,NA,NA,NA,NA,NA,NA,NA,NA,NA,NA,NA,NA,NA,NA,"Affected Population"
"469","HAUTE-VIENNE","Saint-Bonnet-de-Bellac","Farm","Saint-Bonnet-de-Bellac",46.166667,0.95,"21/02/2012","Animals",NA,NA,NA,NA,NA,NA,NA,NA,NA,NA,NA,NA,NA,NA,NA,NA,NA,"Affected Population"
"470","VIENNE","charroux","Farm","charroux",46.15,0.4,"21/02/2012","Animals",NA,NA,NA,NA,NA,NA,NA,NA,NA,NA,NA,NA,NA,NA,NA,NA,NA,"Affected Population"
"471","ORNE","Vingt-Hanaps","Farm","Vingt-Hanaps",48.516667,0.133333,"21/02/2012",NA,NA,NA,NA,NA,NA,"Animals",NA,NA,NA,NA,NA,NA,NA,NA,NA,NA,NA,"Affected Population"
"472","NORD","Quaëdypre","Farm","Quaëdypre",50.933333,2.466667,"21/02/2012","Animals",NA,NA,NA,NA,NA,NA,NA,NA,NA,NA,NA,NA,NA,NA,NA,NA,NA,"Affected Population"
"473","HAUTE-MARNE","Blessonville","Farm","Blessonville",48.066667,5,"21/02/2012",NA,NA,NA,NA,NA,NA,"Animals",NA,NA,NA,NA,NA,NA,NA,NA,NA,NA,NA,"Affected Population"
"474","HAUTE-MARNE","Chalindrey","Farm","Chalindrey",47.8,5.433333,"21/02/2012","Animals",NA,NA,NA,NA,NA,NA,NA,NA,NA,NA,NA,NA,NA,NA,NA,NA,NA,"Affected Population"
"475","AISNE","Dercy","Farm","Dercy",49.7,3.683333,"21/02/2012","Animals",NA,NA,NA,NA,NA,NA,NA,NA,NA,NA,NA,NA,NA,NA,NA,NA,NA,"Affected Population"
"476","ARDENNES","Carignan","Farm","Carignan",49.633333,5.166667,"21/02/2012","Animals",NA,NA,NA,NA,NA,NA,NA,NA,NA,NA,NA,NA,NA,NA,NA,NA,NA,"Affected Population"
"477","MOSELLE","moussey","Farm","moussey",48.716667,6.766667,"21/02/2012","Animals",NA,NA,NA,NA,NA,NA,NA,NA,NA,NA,NA,NA,NA,NA,NA,NA,NA,"Affected Population"
"478","HAUTE-MARNE","Romain-sur-Meuse","Farm","Romain-sur-Meuse",48.166667,5.533333,"21/02/2012","Animals",NA,NA,NA,NA,NA,NA,NA,NA,NA,NA,NA,NA,NA,NA,NA,NA,NA,"Affected Population"
"479","HAUTE-VIENNE","Saint-Priest-Ligoure","Farm","Saint-Priest-Ligoure",45.65,1.3,"21/02/2012","Animals",NA,NA,NA,NA,NA,NA,NA,NA,NA,NA,NA,NA,NA,NA,NA,NA,NA,"Affected Population"
"480","ARDENNES","Thénorgues","Farm","Thénorgues",49.4,4.933333,"21/02/2012","Animals",NA,NA,NA,NA,NA,NA,NA,NA,NA,NA,NA,NA,NA,NA,NA,NA,NA,"Affected Population"
"481","DEUX-SÈVRES","Les Forges","Farm","Les Forges",46.55,-0.033333,"21/02/2012","Animals",NA,NA,NA,NA,NA,NA,NA,NA,NA,NA,NA,NA,NA,NA,NA,NA,NA,"Affected Population"
"482","PAS-DE-CALAIS","Morval","Farm","Morval",50.05,2.916667,"21/02/2012","Animals",NA,NA,NA,NA,NA,NA,NA,NA,NA,NA,NA,NA,NA,NA,NA,NA,NA,"Affected Population"
"483","MEUSE","Montiers-sur-Saulx","Farm","Montiers-sur-Saulx",48.533333,5.266667,"21/02/2012","Animals",NA,NA,NA,NA,NA,NA,NA,NA,NA,NA,NA,NA,NA,NA,NA,NA,NA,"Affected Population"
"484","VIENNE","JOURNET","Farm","JOURNET",46.466667,0.966667,"21/02/2012","Animals",NA,NA,NA,NA,NA,NA,NA,NA,NA,NA,NA,NA,NA,NA,NA,NA,NA,"Affected Population"
"485","HAUTE-VIENNE","Châteauponsac","Farm","Châteauponsac",46.133333,1.283333,"21/02/2012","Animals",NA,NA,NA,NA,NA,NA,NA,NA,NA,NA,NA,NA,NA,NA,NA,NA,NA,"Affected Population"
"486","VOSGES","EPINAL","Farm","EPINAL",48.183333,6.45,"22/02/2012","Animals",NA,NA,NA,NA,NA,NA,NA,NA,NA,NA,NA,NA,NA,NA,NA,NA,NA,"Affected Population"
"487","MEURTHE-ET-MOSELLE","Hammeville","Farm","Hammeville",48.5,6.066667,"22/02/2012",NA,NA,NA,NA,NA,NA,"Animals",NA,NA,NA,NA,NA,NA,NA,NA,NA,NA,NA,"Affected Population"
"488","SEINE-MARITIME","Baons-le-Comte","Farm","Baons-le-Comte",49.65,0.783333,"22/02/2012","Animals",NA,NA,NA,NA,NA,NA,NA,NA,NA,NA,NA,NA,NA,NA,NA,NA,NA,"Affected Population"
"489","VIENNE","MOULISMES","Farm","MOULISMES",46.333333,0.816667,"22/02/2012","Animals",NA,NA,NA,NA,NA,NA,NA,NA,NA,NA,NA,NA,NA,NA,NA,NA,NA,"Affected Population"
"490","HAUTE-VIENNE","Saint-Bonnet-de-Bellac","Farm","Saint-Bonnet-de-Bellac n°1",46.166667,0.95,"22/02/2012","Animals",NA,NA,NA,NA,NA,NA,NA,NA,NA,NA,NA,NA,NA,NA,NA,NA,NA,"Affected Population"
"491","INDRE","Chaillac","Farm","Chaillac",46.433333,1.3,"22/02/2012","Animals",NA,NA,NA,NA,NA,NA,NA,NA,NA,NA,NA,NA,NA,NA,NA,NA,NA,"Affected Population"
"492","BAS-RHIN","Lochwiller","Farm","Lochwiller",48.7,7.416667,"22/02/2012","Animals",NA,NA,NA,NA,NA,NA,NA,NA,NA,NA,NA,NA,NA,NA,NA,NA,NA,"Affected Population"
"493","INDRE","Méobecq","Farm","Méobecq",46.733333,1.416667,"22/02/2012","Animals",NA,NA,NA,NA,NA,NA,NA,NA,NA,NA,NA,NA,NA,NA,NA,NA,NA,"Affected Population"
"494","HAUTE-MARNE","Sarcey","Farm","Sarcey",48.05,5.3,"22/02/2012","Animals",NA,NA,NA,NA,NA,NA,NA,NA,NA,NA,NA,NA,NA,NA,NA,NA,NA,"Affected Population"
"495","HAUTE-MARNE","Châtenay-Vaudin","Farm","Châtenay-Vaudin",47.85,5.45,"22/02/2012","Animals",NA,NA,NA,NA,NA,NA,NA,NA,NA,NA,NA,NA,NA,NA,NA,NA,NA,"Affected Population"
"496","PAS-DE-CALAIS","Coupelle-Vieille","Farm","Coupelle-Vieille",50.533333,2.1,"22/02/2012","Animals",NA,NA,NA,NA,NA,NA,NA,NA,NA,NA,NA,NA,NA,NA,NA,NA,NA,"Affected Population"
"497","HAUTE-MARNE","Châtenay-Vaudin","Farm","Châtenay-Vaudin n°1",47.85,5.45,"22/02/2012","Animals",NA,NA,NA,NA,NA,NA,NA,NA,NA,NA,NA,NA,NA,NA,NA,NA,NA,"Affected Population"
"498","HAUTE-VIENNE","Saint-Priest-Ligoure","Farm","Saint-Priest-Ligoure",45.65,1.3,"22/02/2012","Animals",NA,NA,NA,NA,NA,NA,NA,NA,NA,NA,NA,NA,NA,NA,NA,NA,NA,"Affected Population"
"499","PAS-DE-CALAIS","Mazingarbe","Farm","Mazingarbe",50.466667,2.7,"22/02/2012",NA,NA,NA,NA,NA,NA,"Animals",NA,NA,NA,NA,NA,NA,NA,NA,NA,NA,NA,"Affected Population"
"500","MANCHE","Grosville","Farm","Grosville",49.5,-1.75,"22/02/2012","Animals",NA,NA,NA,NA,NA,NA,NA,NA,NA,NA,NA,NA,NA,NA,NA,NA,NA,"Affected Population"
"501","VOSGES","Saint-Pierremont","Farm","Saint-Pierremont",48.433333,6.583333,"22/02/2012","Animals",NA,NA,NA,NA,NA,NA,NA,NA,NA,NA,NA,NA,NA,NA,NA,NA,NA,"Affected Population"
"502","INDRE","Bagneux","Farm","Bagneux",47.183333,1.75,"22/02/2012","Animals",NA,NA,NA,NA,NA,NA,NA,NA,NA,NA,NA,NA,NA,NA,NA,NA,NA,"Affected Population"
"503","SEINE-MARITIME","Beuzeville-la-Grenier","Farm","Beuzeville-la-Grenier",49.6,0.433333,"22/02/2012","Animals",NA,NA,NA,NA,NA,NA,NA,NA,NA,NA,NA,NA,NA,NA,NA,NA,NA,"Affected Population"
"504","HAUTE-MARNE","Villiers-le-Sec","Farm","Villiers-le-Sec",48.1,5.066667,"22/02/2012","Animals",NA,NA,NA,NA,NA,NA,NA,NA,NA,NA,NA,NA,NA,NA,NA,NA,NA,"Affected Population"
"505","BAS-RHIN","Rimsdorf","Farm","Rimsdorf",48.933333,7.133333,"22/02/2012","Animals",NA,NA,NA,NA,NA,NA,NA,NA,NA,NA,NA,NA,NA,NA,NA,NA,NA,"Affected Population"
"506","VIENNE","LE VIGEANT","Farm","LE VIGEANT",46.233333,0.65,"22/02/2012","Animals",NA,NA,NA,NA,NA,NA,NA,NA,NA,NA,NA,NA,NA,NA,NA,NA,NA,"Affected Population"
"507","SEINE-MARITIME","Heugleville-sur-Scie","Farm","Heugleville-sur-Scie",49.733333,1.1,"22/02/2012","Animals",NA,NA,NA,NA,NA,NA,NA,NA,NA,NA,NA,NA,NA,NA,NA,NA,NA,"Affected Population"
"508","SEINE-MARITIME","Prétot-Vicquemare","Farm","Prétot-Vicquemare",49.733333,0.85,"22/02/2012","Animals",NA,NA,NA,NA,NA,NA,NA,NA,NA,NA,NA,NA,NA,NA,NA,NA,NA,"Affected Population"
"509","VOSGES","Autrey","Farm","Autrey",48.3,6.683333,"22/02/2012","Animals",NA,NA,NA,NA,NA,NA,NA,NA,NA,NA,NA,NA,NA,NA,NA,NA,NA,"Affected Population"
"510","MANCHE","Saint-Georges-d'Elle","Farm","Saint-Georges-d'Elle",49.15,-0.966667,"22/02/2012","Animals",NA,NA,NA,NA,NA,NA,NA,NA,NA,NA,NA,NA,NA,NA,NA,NA,NA,"Affected Population"
"511","HAUTE-MARNE","Champigny-sous-Varennes","Farm","Champigny-sous-Varennes",47.866667,5.65,"22/02/2012","Animals",NA,NA,NA,NA,NA,NA,NA,NA,NA,NA,NA,NA,NA,NA,NA,NA,NA,"Affected Population"
"512","VOSGES","Autigny-la-Tour","Farm","Autigny-la-Tour",48.4,5.766667,"22/02/2012","Animals",NA,NA,NA,NA,NA,NA,NA,NA,NA,NA,NA,NA,NA,NA,NA,NA,NA,"Affected Population"
"513","CALVADOS","Le Reculey","Farm","Le Reculey",48.916667,-0.85,"22/02/2012","Animals",NA,NA,NA,NA,NA,NA,NA,NA,NA,NA,NA,NA,NA,NA,NA,NA,NA,"Affected Population"
"514","INDRE","Saint-Martin-de-Lamps","Farm","Saint-Martin-de-Lamps",46.983333,1.516667,"22/02/2012","Animals",NA,NA,NA,NA,NA,NA,NA,NA,NA,NA,NA,NA,NA,NA,NA,NA,NA,"Affected Population"
"515","INDRE","Thenay","Farm","Thenay",46.633333,1.433333,"22/02/2012","Animals",NA,NA,NA,NA,NA,NA,NA,NA,NA,NA,NA,NA,NA,NA,NA,NA,NA,"Affected Population"
"516","HAUTE-VIENNE","Saint-Ouen-sur-Gartempe","Farm","Saint-Ouen-sur-Gartempe",46.166667,1.066667,"22/02/2012","Animals",NA,NA,NA,NA,NA,NA,NA,NA,NA,NA,NA,NA,NA,NA,NA,NA,NA,"Affected Population"
"517","HAUTE-VIENNE","Thiat","Farm","Thiat",46.266667,0.966667,"22/02/2012","Animals",NA,NA,NA,NA,NA,NA,NA,NA,NA,NA,NA,NA,NA,NA,NA,NA,NA,"Affected Population"
"518","HAUTE-VIENNE","Bussière-Poitevine","Farm","Bussière-Poitevine",46.233333,0.916667,"22/02/2012","Animals",NA,NA,NA,NA,NA,NA,NA,NA,NA,NA,NA,NA,NA,NA,NA,NA,NA,"Affected Population"
"519","HAUTE-SAÔNE","Ormoy","Farm","Ormoy",47.883333,5.983333,"22/02/2012","Animals",NA,NA,NA,NA,NA,NA,NA,NA,NA,NA,NA,NA,NA,NA,NA,NA,NA,"Affected Population"
"520","SEINE-MARITIME","Bolleville","Farm","Bolleville",49.6,0.566667,"22/02/2012","Animals",NA,NA,NA,NA,NA,NA,NA,NA,NA,NA,NA,NA,NA,NA,NA,NA,NA,"Affected Population"
"521","SEINE-MARITIME","Saint-Clair-sur-les-Monts","Farm","Saint-Clair-sur-les-Monts",49.6,0.8,"22/02/2012","Animals",NA,NA,NA,NA,NA,NA,NA,NA,NA,NA,NA,NA,NA,NA,NA,NA,NA,"Affected Population"
"522","SOMME","Saint-Germain-sur-Bresle","Farm","Saint-Germain-sur-Bresle",49.833333,1.733333,"22/02/2012",NA,NA,NA,NA,NA,NA,"Animals",NA,NA,NA,NA,NA,NA,NA,NA,NA,NA,NA,"Affected Population"
"523","VIENNE","VERRIERES","Farm","VERRIERES",46.416667,0.6,"22/02/2012","Animals",NA,NA,NA,NA,NA,NA,NA,NA,NA,NA,NA,NA,NA,NA,NA,NA,NA,"Affected Population"
"524","BAS-RHIN","Schillersdorf","Farm","Schillersdorf",48.866667,7.516667,"22/02/2012","Animals",NA,NA,NA,NA,NA,NA,NA,NA,NA,NA,NA,NA,NA,NA,NA,NA,NA,"Affected Population"
"525","INDRE","Saint-Hilaire-sur-Bénaize","Farm","Saint-Hilaire-sur-Bénaize",46.566667,1.083333,"22/02/2012",NA,NA,NA,NA,NA,NA,NA,NA,NA,NA,NA,NA,"Animals",NA,NA,NA,NA,NA,"Affected Population"
"526","INDRE","Nuret-le-Ferron","Farm","Nuret-le-Ferron",46.666667,1.433333,"22/02/2012","Animals",NA,NA,NA,NA,NA,NA,NA,NA,NA,NA,NA,NA,NA,NA,NA,NA,NA,"Affected Population"
"527","INDRE","Ciron","Farm","Ciron",46.616667,1.25,"22/02/2012","Animals",NA,NA,NA,NA,NA,NA,NA,NA,NA,NA,NA,NA,NA,NA,NA,NA,NA,"Affected Population"
"528","CÔTE-D'OR","Frôlois","Farm","Frôlois",47.533333,4.633333,"22/02/2012","Animals",NA,NA,NA,NA,NA,NA,NA,NA,NA,NA,NA,NA,NA,NA,NA,NA,NA,"Affected Population"
"529","MANCHE","Bricquebec","Farm","Bricquebec",49.466667,-1.633333,"22/02/2012","Animals",NA,NA,NA,NA,NA,NA,NA,NA,NA,NA,NA,NA,NA,NA,NA,NA,NA,"Affected Population"
"530","PAS-DE-CALAIS","Audruicq","Farm","Audruicq",50.883333,2.083333,"22/02/2012",NA,NA,NA,NA,NA,NA,NA,NA,NA,NA,NA,NA,"Animals",NA,NA,NA,NA,NA,"Affected Population"
"531","PAS-DE-CALAIS","Saint-Denoeux","Farm","Saint-Denoeux",50.466667,1.9,"22/02/2012","Animals",NA,NA,NA,NA,NA,NA,NA,NA,NA,NA,NA,NA,NA,NA,NA,NA,NA,"Affected Population"
"532","HAUTE-VIENNE","Roussac","Farm","Roussac",46.083333,1.2,"22/02/2012","Animals",NA,NA,NA,NA,NA,NA,NA,NA,NA,NA,NA,NA,NA,NA,NA,NA,NA,"Affected Population"
"533","HAUTE-VIENNE","Saint-Bonnet-de-Bellac","Farm","Saint-Bonnet-de-Bellac n°2",46.166667,0.95,"22/02/2012","Animals",NA,NA,NA,NA,NA,NA,NA,NA,NA,NA,NA,NA,NA,NA,NA,NA,NA,"Affected Population"
"534","NORD","Honnechy","Farm","Honnechy",50.066667,3.45,"22/02/2012","Animals",NA,NA,NA,NA,NA,NA,NA,NA,NA,NA,NA,NA,NA,NA,NA,NA,NA,"Affected Population"
"535","MEURTHE-ET-MOSELLE","Mont-Bonvillers","Farm","Mont-Bonvillers",49.333333,5.85,"22/02/2012","Animals",NA,NA,NA,NA,NA,NA,NA,NA,NA,NA,NA,NA,NA,NA,NA,NA,NA,"Affected Population"
"536","VOSGES","Senaide","Farm","Senaide",47.966667,5.8,"22/02/2012","Animals",NA,NA,NA,NA,NA,NA,NA,NA,NA,NA,NA,NA,NA,NA,NA,NA,NA,"Affected Population"
"537","SEINE-MARITIME","Hermanville","Farm","Hermanville",49.816667,0.983333,"23/02/2012","Animals",NA,NA,NA,NA,NA,NA,NA,NA,NA,NA,NA,NA,NA,NA,NA,NA,NA,"Affected Population"
"538","YONNE","Angely","Farm","Angely",47.566667,4.016667,"23/02/2012","Animals",NA,NA,NA,NA,NA,NA,NA,NA,NA,NA,NA,NA,NA,NA,NA,NA,NA,"Affected Population"
"539","MOSELLE","Fraquelfing","Farm","Fraquelfing",48.633333,6.983333,"23/02/2012","Animals",NA,NA,NA,NA,NA,NA,NA,NA,NA,NA,NA,NA,NA,NA,NA,NA,NA,"Affected Population"
"540","NIÈVRE","Saint-Saulge","Farm","Saint-Saulge",47.1,3.5,"23/02/2012","Animals",NA,NA,NA,NA,NA,NA,NA,NA,NA,NA,NA,NA,NA,NA,NA,NA,NA,"Affected Population"
"541","PAS-DE-CALAIS","Audincthun","Farm","Audincthun",50.583333,2.066667,"23/02/2012","Animals",NA,NA,NA,NA,NA,NA,NA,NA,NA,NA,NA,NA,NA,NA,NA,NA,NA,"Affected Population"
"542","CHARENTE","Brigueuil","Farm","Brigueuil",45.95308,0.85879,"23/02/2012","Animals",NA,NA,NA,NA,NA,NA,NA,NA,NA,NA,NA,NA,NA,NA,NA,NA,NA,"Affected Population"
"543","VIENNE","Coussay-les-Bois","Farm","Coussay-les-Bois",46.8,0.75,"23/02/2012","Animals",NA,NA,NA,NA,NA,NA,NA,NA,NA,NA,NA,NA,NA,NA,NA,NA,NA,"Affected Population"
"544","VIENNE","Thollet","Farm","Thollet",46.42108,1.12298,"23/02/2012","Animals",NA,NA,NA,NA,NA,NA,NA,NA,NA,NA,NA,NA,NA,NA,NA,NA,NA,"Affected Population"
"545","VIENNE","Nérignac","Farm","Nérignac",46.3,0.733333,"23/02/2012","Animals",NA,NA,NA,NA,NA,NA,NA,NA,NA,NA,NA,NA,NA,NA,NA,NA,NA,"Affected Population"
"546","VIENNE","L'Isle-Jourdain","Farm","L'Isle-Jourdain n°2",46.233333,0.683333,"23/02/2012","Animals",NA,NA,NA,NA,NA,NA,NA,NA,NA,NA,NA,NA,NA,NA,NA,NA,NA,"Affected Population"
"547","VIENNE","Luchapt","Farm","Luchapt",46.016667,0.783333,"23/02/2012","Animals",NA,NA,NA,NA,NA,NA,NA,NA,NA,NA,NA,NA,NA,NA,NA,NA,NA,"Affected Population"
"548","CALVADOS","Saint-Jean-le-Blanc","Farm","Saint-Jean-le-Blanc",48.933333,-0.65,"23/02/2012","Animals",NA,NA,NA,NA,NA,NA,NA,NA,NA,NA,NA,NA,NA,NA,NA,NA,NA,"Affected Population"
"549","HAUTE-VIENNE","Arnac-la-Poste","Farm","Arnac-la-Poste",46.266667,1.383333,"23/02/2012","Animals",NA,NA,NA,NA,NA,NA,NA,NA,NA,NA,NA,NA,NA,NA,NA,NA,NA,"Affected Population"
"550","VIENNE","Availles-Limouzine","Farm","Availles-Limouzine",46.116667,0.65,"23/02/2012","Animals",NA,NA,NA,NA,NA,NA,NA,NA,NA,NA,NA,NA,NA,NA,NA,NA,NA,"Affected Population"
"551","VIENNE","Asnières-sur-Blour","Farm","Asnières-sur-Blour",46.166667,0.8,"23/02/2012","Animals",NA,NA,NA,NA,NA,NA,NA,NA,NA,NA,NA,NA,NA,NA,NA,NA,NA,"Affected Population"
"552","VIENNE","L'Isle-Jourdain","Farm","L'Isle-Jourdain n°1",46.233333,0.683333,"23/02/2012","Animals",NA,NA,NA,NA,NA,NA,NA,NA,NA,NA,NA,NA,NA,NA,NA,NA,NA,"Affected Population"
"553","VIENNE","La Trimouille","Farm","La Trimouille n°1",46.466667,1.05,"23/02/2012","Animals",NA,NA,NA,NA,NA,NA,NA,NA,NA,NA,NA,NA,NA,NA,NA,NA,NA,"Affected Population"
"554","VIENNE","Liglet","Farm","Liglet",46.516667,1.083333,"23/02/2012","Animals",NA,NA,NA,NA,NA,NA,NA,NA,NA,NA,NA,NA,NA,NA,NA,NA,NA,"Affected Population"
"555","YONNE","Chablis","Farm","Chablis",47.816667,3.8,"23/02/2012","Animals",NA,NA,NA,NA,NA,NA,NA,NA,NA,NA,NA,NA,NA,NA,NA,NA,NA,"Affected Population"
"556","MANCHE","L'Étang-Bertrand","Farm","L'Étang-Bertrand",49.466667,-1.558333,"23/02/2012","Animals",NA,NA,NA,NA,NA,NA,NA,NA,NA,NA,NA,NA,NA,NA,NA,NA,NA,"Affected Population"
"557","CALVADOS","Saint-Gâtien-des-Bois","Farm","Saint-Gâtien-des-Bois",49.35,0.183333,"23/02/2012",NA,NA,NA,NA,NA,NA,"Animals",NA,NA,NA,NA,NA,NA,NA,NA,NA,NA,NA,"Affected Population"
"558","VIENNE","Brigueil-le-Chantre","Farm","Brigueil-le-Chantre n°1",46.4,1.083333,"23/02/2012","Animals",NA,NA,NA,NA,NA,NA,NA,NA,NA,NA,NA,NA,NA,NA,NA,NA,NA,"Affected Population"
"559","VIENNE","Montmorillon","Farm","Montmorillon",46.433333,0.866667,"23/02/2012","Animals",NA,NA,NA,NA,NA,NA,NA,NA,NA,NA,NA,NA,NA,NA,NA,NA,NA,"Affected Population"
"560","CHARENTE","Abzac","Farm","Abzac",46.1,0.7,"23/02/2012","Animals",NA,NA,NA,NA,NA,NA,NA,NA,NA,NA,NA,NA,NA,NA,NA,NA,NA,"Affected Population"
"561","VIENNE","Vernon","Farm","Vernon",46.45,0.483333,"23/02/2012","Animals",NA,NA,NA,NA,NA,NA,NA,NA,NA,NA,NA,NA,NA,NA,NA,NA,NA,"Affected Population"
"562","MOSELLE","Foulcrey","Farm","Foulcrey",48.633333,6.866667,"23/02/2012","Animals",NA,NA,NA,NA,NA,NA,NA,NA,NA,NA,NA,NA,NA,NA,NA,NA,NA,"Affected Population"
"563","VIENNE","Brigueil-le-Chantre","Farm","Brigueil-le-Chantre n°2",46.4,1.083333,"23/02/2012","Animals",NA,NA,NA,NA,NA,NA,NA,NA,NA,NA,NA,NA,NA,NA,NA,NA,NA,"Affected Population"
"564","MANCHE","Tourlaville","Farm","Tourlaville",49.633333,-1.566667,"23/02/2012","Animals",NA,NA,NA,NA,NA,NA,NA,NA,NA,NA,NA,NA,NA,NA,NA,NA,NA,"Affected Population"
"565","VIENNE","Mazerolles","Farm","Mazerolles",46.4,0.683333,"23/02/2012","Animals",NA,NA,NA,NA,NA,NA,NA,NA,NA,NA,NA,NA,NA,NA,NA,NA,NA,"Affected Population"
"566","SEINE-MARITIME","Beaurepaire","Farm","Beaurepaire",49.666667,0.216667,"23/02/2012","Animals",NA,NA,NA,NA,NA,NA,NA,NA,NA,NA,NA,NA,NA,NA,NA,NA,NA,"Affected Population"
"567","VIENNE","Adriers","Farm","Adriers",46.25,0.8,"23/02/2012","Animals",NA,NA,NA,NA,NA,NA,NA,NA,NA,NA,NA,NA,NA,NA,NA,NA,NA,"Affected Population"
"568","AISNE","Brunehamel","Farm","Brunehamel",49.766667,4.183333,"23/02/2012","Animals",NA,NA,NA,NA,NA,NA,NA,NA,NA,NA,NA,NA,NA,NA,NA,NA,NA,"Affected Population"
"569","VIENNE","Payroux","Farm","Payroux",46.216667,0.483333,"23/02/2012","Animals",NA,NA,NA,NA,NA,NA,NA,NA,NA,NA,NA,NA,NA,NA,NA,NA,NA,"Affected Population"
"570","VIENNE","Moulismes","Farm","Moulismes",46.333333,0.816667,"23/02/2012","Animals",NA,NA,NA,NA,NA,NA,NA,NA,NA,NA,NA,NA,NA,NA,NA,NA,NA,"Affected Population"
"571","AISNE","Chézy-en-Orxois","Farm","Chézy-en-Orxois",49.133333,3.183333,"23/02/2012","Animals",NA,NA,NA,NA,NA,NA,NA,NA,NA,NA,NA,NA,NA,NA,NA,NA,NA,"Affected Population"
"572","NIÈVRE","VERNEUIL","Farm","VERNEUIL",46.866667,3.55,"23/02/2012","Animals",NA,NA,NA,NA,NA,NA,NA,NA,NA,NA,NA,NA,NA,NA,NA,NA,NA,"Affected Population"
"573","YONNE","Magny","Farm","Magny",47.48414,3.98098,"23/02/2012","Animals",NA,NA,NA,NA,NA,NA,NA,NA,NA,NA,NA,NA,NA,NA,NA,NA,NA,"Affected Population"
"574","CALVADOS","Cossesseville","Farm","Cossesseville",48.9,-0.416667,"23/02/2012","Animals",NA,NA,NA,NA,NA,NA,NA,NA,NA,NA,NA,NA,NA,NA,NA,NA,NA,"Affected Population"
"575","VIENNE","Le Vigeant","Farm","Le Vigeant",46.233333,0.65,"23/02/2012","Animals",NA,NA,NA,NA,NA,NA,NA,NA,NA,NA,NA,NA,NA,NA,NA,NA,NA,"Affected Population"
"576","VIENNE","La Trimouille","Farm","La Trimouille n°2",46.466667,1.05,"23/02/2012","Animals",NA,NA,NA,NA,NA,NA,NA,NA,NA,NA,NA,NA,NA,NA,NA,NA,NA,"Affected Population"
"577","ARDENNES","Fromy","Farm","Fromy",49.6,5.25,"23/02/2012","Animals",NA,NA,NA,NA,NA,NA,NA,NA,NA,NA,NA,NA,NA,NA,NA,NA,NA,"Affected Population"
"578","MANCHE","Saint-André-de-Bohon","Farm","Saint-André-de-Bohon",49.233333,-1.25,"23/02/2012","Animals",NA,NA,NA,NA,NA,NA,NA,NA,NA,NA,NA,NA,NA,NA,NA,NA,NA,"Affected Population"
"579","VIENNE","Chauvigny","Farm","Chauvigny",46.566667,0.65,"23/02/2012","Animals",NA,NA,NA,NA,NA,NA,NA,NA,NA,NA,NA,NA,NA,NA,NA,NA,NA,"Affected Population"
"580","HAUTE-VIENNE","Arnac-la-Poste","Farm","Arnac-la-Poste n°2",46.266667,1.383333,"24/02/2012","Animals",NA,NA,NA,NA,NA,NA,NA,NA,NA,NA,NA,NA,NA,NA,NA,NA,NA,"Affected Population"
"581","INDRE-ET-LOIRE","Sainte-Maure-de-Touraine","Farm","Sainte-Maure-de-Touraine",47.1,0.616667,"24/02/2012",NA,NA,NA,NA,NA,NA,NA,NA,NA,NA,NA,NA,"Animals",NA,NA,NA,NA,NA,"Affected Population"
"582","HAUTE-VIENNE","Magnac-Laval","Farm","Magnac-Laval",46.216667,1.166667,"24/02/2012","Animals",NA,NA,NA,NA,NA,NA,NA,NA,NA,NA,NA,NA,NA,NA,NA,NA,NA,"Affected Population"
"583","AISNE","Ronchères","Farm","Ronchères",49.15,3.6,"24/02/2012","Animals",NA,NA,NA,NA,NA,NA,NA,NA,NA,NA,NA,NA,NA,NA,NA,NA,NA,"Affected Population"
"584","PAS-DE-CALAIS","Frévent","Farm","Frévent",50.266667,2.283333,"24/02/2012","Animals",NA,NA,NA,NA,NA,NA,NA,NA,NA,NA,NA,NA,NA,NA,NA,NA,NA,"Affected Population"
"585","NIÈVRE","Marigny-l'Église","Farm","Marigny-l'Église",47.366667,3.933333,"24/02/2012",NA,NA,NA,NA,NA,NA,"Animals",NA,NA,NA,NA,NA,NA,NA,NA,NA,NA,NA,"Affected Population"
"586","CHER","Osmoy","Farm","Osmoy",47.066667,2.516667,"24/02/2012","Animals",NA,NA,NA,NA,NA,NA,NA,NA,NA,NA,NA,NA,NA,NA,NA,NA,NA,"Affected Population"
"587","INDRE-ET-LOIRE","La Celle-Guénand","Farm","La Celle-Guénand",46.933333,0.9,"24/02/2012","Animals",NA,NA,NA,NA,NA,NA,NA,NA,NA,NA,NA,NA,NA,NA,NA,NA,NA,"Affected Population"
"588","HAUTE-VIENNE","Saint-Léger-Magnazeix","Farm","Saint-Léger-Magnazeix n°2",46.283333,1.25,"24/02/2012",NA,NA,NA,NA,NA,NA,"Animals",NA,NA,NA,NA,NA,NA,NA,NA,NA,NA,NA,"Affected Population"
"589","HAUTE-VIENNE","Peyrat-de-Bellac","Farm","Peyrat-de-Bellac",46.15,1.033333,"24/02/2012","Animals",NA,NA,NA,NA,NA,NA,NA,NA,NA,NA,NA,NA,NA,NA,NA,NA,NA,"Affected Population"
"590","MEUSE","Rupt-devant-Saint-Mihiel","Farm","Rupt-devant-Saint-Mihiel",48.883333,5.416667,"24/02/2012","Animals",NA,NA,NA,NA,NA,NA,NA,NA,NA,NA,NA,NA,NA,NA,NA,NA,NA,"Affected Population"
"591","HAUTE-VIENNE","Saint-Sornin-Leulac","Farm","Saint-Sornin-Leulac",46.2,1.3,"24/02/2012","Animals",NA,NA,NA,NA,NA,NA,NA,NA,NA,NA,NA,NA,NA,NA,NA,NA,NA,"Affected Population"
"592","MANCHE","QUIBOU","Farm","QUIBOU",49.066667,-1.2,"24/02/2012","Animals",NA,NA,NA,NA,NA,NA,NA,NA,NA,NA,NA,NA,NA,NA,NA,NA,NA,"Affected Population"
"593","HAUTE-VIENNE","Arnac-la-Poste","Farm","Arnac-la-Poste n°1",46.266667,1.383333,"24/02/2012","Animals",NA,NA,NA,NA,NA,NA,NA,NA,NA,NA,NA,NA,NA,NA,NA,NA,NA,"Affected Population"
"594","NIÈVRE","Marzy","Farm","Marzy",46.983333,3.1,"24/02/2012","Animals",NA,NA,NA,NA,NA,NA,NA,NA,NA,NA,NA,NA,NA,NA,NA,NA,NA,"Affected Population"
